[{"location":"Nakusp, Canada","lon":-117.80538,"lat":50.23925},{"location":"Vancouver, Canada","lon":-123.11498,"lat":49.260975},{"location":"Bromont, Canada","lon":-72.647125,"lat":45.31921},{"location":"Scranton, United States","lon":-75.665085,"lat":41.40879},{"location":"Laramie, United States","lon":-105.59362,"lat":41.311024},{"location":"Collingwood, Canada","lon":-80.216995,"lat":44.500874},{"location":"North Vancouver, Canada","lon":-123.07238,"lat":49.320023},{"location":"Concord, United States","lon":-80.58134,"lat":35.410538},{"location":"Cedar City, United States","lon":-113.06175,"lat":37.677372},{"location":"Kamloops, Canada","lon":-120.3344,"lat":50.676693},{"location":"Vancouver, United States","lon":-122.67271,"lat":45.628773},{"location":"Guelph, Canada","lon":-80.2481,"lat":43.54478},{"location":"Slave Lake, Canada","lon":-114.77156,"lat":55.282166},{"location":"Vancouver Island, Canada","lon":-125.5,"lat":49.6},{"location":"South Lake Tahoe, United States","lon":-119.98382,"lat":38.934498},{"location":"Newmarket, Canada","lon":-79.45679,"lat":44.052467},{"location":"Mill Creek, United States","lon":-122.220314,"lat":47.857594},{"location":"Owen Sound, Canada","lon":-80.94095,"lat":44.566032},{"location":"Huntington Beach, United States","lon":-117.99892,"lat":33.678825},{"location":"Whitefish, United States","lon":-114.33823,"lat":48.41062},{"location":"Kitchener-Waterloo, Canada","lon":-80.48773,"lat":43.44922},{"location":"Lake Forest, United States","lon":-117.685814,"lat":33.64688},{"location":"Old Bethpage, United States","lon":-73.45346,"lat":40.762974},{"location":"Fox Island, United States","lon":-122.63717,"lat":47.25778},{"location":"Ladysmith, Canada","lon":-123.81605,"lat":48.994102},{"location":"Falmouth, United States","lon":-70.61716,"lat":41.5526},{"location":"Glens Falls, United States","lon":-73.64435,"lat":43.309753},{"location":"Royal Oak, United States","lon":-83.144196,"lat":42.487278},{"location":"Prineville, United States","lon":-120.84711,"lat":44.30292},{"location":"Windsor, Canada","lon":-83.03833,"lat":42.316418},{"location":"Portland, United States","lon":-122.67837,"lat":45.515198},{"location":"North Haven, United States","lon":-72.85541,"lat":41.395916},{"location":"Hamilton, Canada","lon":-79.86907,"lat":43.25669},{"location":"Peoria, United States","lon":-112.23895,"lat":33.577415},{"location":"Nanaimo, Canada","lon":-123.93698,"lat":49.166573},{"location":"Walnut Creek, United States","lon":-122.061104,"lat":37.89999},{"location":"Tucson, United States","lon":-110.973305,"lat":32.2213},{"location":"Mifflinburg, United States","lon":-77.047714,"lat":40.917633},{"location":"Albuquerque, United States","lon":-106.650945,"lat":35.088192},{"location":"Watertown, United States","lon":-75.91055,"lat":43.974648},{"location":"Bentonville, United States","lon":-94.20884,"lat":36.372345},{"location":"Westbank, Canada","lon":-119.61568,"lat":49.836132},{"location":"Shingle Springs, United States","lon":-120.92655,"lat":38.66562},{"location":"Sunnyvale, United States","lon":-122.028786,"lat":37.3773},{"location":"Oklahoma City, United States","lon":-97.51798,"lat":35.46883},{"location":"Idaho Falls, United States","lon":-112.04124,"lat":43.493988},{"location":"Chesterfield, United States","lon":-90.56471,"lat":38.661083},{"location":"Croton, United States","lon":-82.68626,"lat":40.23895},{"location":"Edmonton, Canada","lon":-113.493744,"lat":53.543144},{"location":"Boca Raton, United States","lon":-80.086464,"lat":26.35051},{"location":"New Haven, United States","lon":-72.92577,"lat":41.306065},{"location":"Roslyn, United States","lon":-75.13718,"lat":40.131737},{"location":"Beaverton, Canada","lon":-79.15332,"lat":44.42946},{"location":"Frederick, United States","lon":-77.41098,"lat":39.414177},{"location":"Johnson City, United States","lon":-82.35305,"lat":36.31618},{"location":"Cholula, M\u00e9xico","lon":-98.305503,"lat":19.061198},{"location":"San Diego, United States","lon":-117.16016,"lat":32.713623},{"location":"Gibsons, Canada","lon":-123.50537,"lat":49.401806},{"location":"Stockton, United States","lon":-121.2884,"lat":37.952866},{"location":"Winter Park, United States","lon":-81.35102,"lat":28.595943},{"location":"Calgary, Canada","lon":-114.067955,"lat":51.0457},{"location":"Scottsdale, United States","lon":-111.92618,"lat":33.496822},{"location":"Glendale, United States","lon":-112.18516,"lat":33.538563},{"location":"Kimberley, Canada","lon":-115.983055,"lat":49.6847},{"location":"Bath, United States","lon":-84.44839,"lat":42.816982},{"location":"Orford, Canada","lon":-72.16484,"lat":45.309284},{"location":"Fallston, United States","lon":-76.41058,"lat":39.51392},{"location":"Sandy, United States","lon":-111.89729,"lat":40.570766},{"location":"Appleton, United States","lon":-88.41079,"lat":44.26182},{"location":"Emerson, United States","lon":-117.42665,"lat":47.683086},{"location":"Boulder, United States","lon":-105.27869,"lat":40.01816},{"location":"West Vancouver, Canada","lon":-123.1568,"lat":49.328323},{"location":"Montreal, Canada","lon":-73.5728,"lat":45.50283},{"location":"Sioux Falls, United States","lon":-96.726776,"lat":43.545998},{"location":"San Rafael, United States","lon":-122.52839,"lat":37.972157},{"location":"Houston, United States","lon":-95.363434,"lat":29.760496},{"location":"Toronto, Canada","lon":-79.38355,"lat":43.647938},{"location":"Kelowna, Canada","lon":-119.4935,"lat":49.886322},{"location":"Thunder Bay, Canada","lon":-89.25829,"lat":48.406487},{"location":"Terrace, Canada","lon":-128.58667,"lat":54.516514},{"location":"Truckee, United States","lon":-120.18406,"lat":39.328175},{"location":"Fruita, United States","lon":-108.73317,"lat":39.158886},{"location":"Lafayette, United States","lon":-92.018776,"lat":30.222906},{"location":"Austin, United States","lon":-97.742805,"lat":30.268072},{"location":"Saskatoon, Canada","lon":-106.66217,"lat":52.128414},{"location":"Abbotsford, Canada","lon":-122.32835,"lat":49.05157},{"location":"Bloomfield, Canada","lon":-77.22765,"lat":43.987526},{"location":"Pasadena, United States","lon":-95.21969,"lat":29.690756},{"location":"West Chester, United States","lon":-75.60447,"lat":39.959724},{"location":"Orlando, United States","lon":-81.379036,"lat":28.54211},{"location":"Folsom, United States","lon":-121.176414,"lat":38.67777},{"location":"Santa Barbara, United States","lon":-119.70343,"lat":34.423347},{"location":"Ashland, United States","lon":-82.63881,"lat":38.479595},{"location":"Asbury Park, United States","lon":-74.01261,"lat":40.21815},{"location":"Redding, United States","lon":-122.392586,"lat":40.585033},{"location":"Vernon, Canada","lon":-119.27376,"lat":50.26378},{"location":"Boerne, United States","lon":-98.73211,"lat":29.794497},{"location":"Ringwood, United States","lon":-74.24543,"lat":41.113377},{"location":"Santa Ana, United States","lon":-117.86972,"lat":33.748875},{"location":"Simi Valley, United States","lon":-118.754196,"lat":34.268433},{"location":"Grand Rapids, United States","lon":-85.67018,"lat":42.966385},{"location":"Pittsburgh, United States","lon":-79.99676,"lat":40.439377},{"location":"Morristown, United States","lon":-74.48205,"lat":40.796932},{"location":"Miami, United States","lon":-80.188796,"lat":25.774429},{"location":"Kansas City, United States","lon":-94.57863,"lat":39.098484},{"location":"Montgomery, United States","lon":-86.30203,"lat":32.367405},{"location":"Brooklyn, United States","lon":-73.9497,"lat":40.6526},{"location":"Ironwood, United States","lon":-112.25501,"lat":33.67443},{"location":"Bakersfield, United States","lon":-119.01893,"lat":35.374336},{"location":"South Bend, United States","lon":-86.25198,"lat":41.676373},{"location":"Corner Brook, Canada","lon":-57.954967,"lat":48.95146},{"location":"Louisville, United States","lon":-85.758804,"lat":38.253246},{"location":"Tampa Bay, United States","lon":-82.343392,"lat":28.18473},{"location":"River Vale, United States","lon":-74.006096,"lat":40.99489},{"location":"Dover, United States","lon":-75.52442,"lat":39.15807},{"location":"Airdrie, Canada","lon":-114.01019,"lat":51.28668},{"location":"Arcadia, United States","lon":-118.04093,"lat":34.136517},{"location":"Sooke, Canada","lon":-123.732635,"lat":48.382786},{"location":"Livermore, United States","lon":-121.76837,"lat":37.68202},{"location":"San Pedro, United States","lon":-118.285706,"lat":33.73966},{"location":"Morgan Hill, United States","lon":-121.65309,"lat":37.12884},{"location":"Olney, United States","lon":-75.130516,"lat":40.036446},{"location":"Palo Alto, United States","lon":-122.16095,"lat":37.444508},{"location":"Cortez, United States","lon":-117.16114,"lat":32.721962},{"location":"Halifax, Canada","lon":-63.585949,"lat":44.648618},{"location":"Stafford, United States","lon":-77.408195,"lat":38.422047},{"location":"Winnipeg, Canada","lon":-97.138596,"lat":49.89558},{"location":"Cranbrook, Canada","lon":-115.766174,"lat":49.512142},{"location":"Santa Rosa, United States","lon":-122.71344,"lat":38.439667},{"location":"My City, United States","lon":-96.75176,"lat":32.76724},{"location":"Greensboro, United States","lon":-79.79154,"lat":36.072544},{"location":"Mt. Vernon, United States","lon":-73.837105,"lat":40.911728},{"location":"Chapel Hill, United States","lon":-79.055786,"lat":35.913147},{"location":"Stamford, United States","lon":-73.54084,"lat":41.05318},{"location":"New York City, United States","lon":-74.005994,"lat":40.712749},{"location":"Eureka, United States","lon":-124.167885,"lat":40.791424},{"location":"Mission Viejo, United States","lon":-117.65831,"lat":33.596893},{"location":"Burnaby, Canada","lon":-122.972206,"lat":49.244},{"location":"Qualicum Beach, Canada","lon":-124.44434,"lat":49.34719},{"location":"Nashville, United States","lon":-86.781075,"lat":36.164516},{"location":"Menifee, United States","lon":-117.17565,"lat":33.68495},{"location":"Santa Maria, United States","lon":-120.43597,"lat":34.95307},{"location":"Eugene, United States","lon":-123.09169,"lat":44.051147},{"location":"Piscataway, United States","lon":-74.46578,"lat":40.546833},{"location":"Escanaba, United States","lon":-87.064156,"lat":45.745735},{"location":"La Verne, United States","lon":-117.76982,"lat":34.101513},{"location":"New London, United States","lon":-72.09514,"lat":41.354424},{"location":"Anchorage, United States","lon":-149.89345,"lat":61.216564},{"location":"Redwood City, United States","lon":-122.232529,"lat":37.48628},{"location":"Hawthorne, United States","lon":-118.35272,"lat":33.91641},{"location":"Fort McMurray, Canada","lon":-111.38163,"lat":56.727737},{"location":"Williams Lake, Canada","lon":-122.142395,"lat":52.128914},{"location":"La Crosse, United States","lon":-91.25121,"lat":43.812393},{"location":"Aspen, United States","lon":-106.819214,"lat":39.19068},{"location":"Gig Harbor, United States","lon":-122.580864,"lat":47.329414},{"location":"Fort Collins, United States","lon":-105.07712,"lat":40.587093},{"location":"Saint Helena, United States","lon":-122.47031,"lat":38.50526},{"location":"Silver Spring, United States","lon":-77.026955,"lat":38.99458},{"location":"Watervliet, United States","lon":-73.69989,"lat":42.725628},{"location":"Okotoks, Canada","lon":-113.97492,"lat":50.725468},{"location":"Newport News, United States","lon":-76.430756,"lat":36.978394},{"location":"Whistler, Canada","lon":-122.95495,"lat":50.1151},{"location":"Berkeley, United States","lon":-122.26807,"lat":37.87031},{"location":"Mississauga, Canada","lon":-79.642784,"lat":43.589054},{"location":"Coldstream, Canada","lon":-119.228226,"lat":50.223675},{"location":"Adamsburg, United States","lon":-79.656643,"lat":40.311645},{"location":"Qu\u00e9bec City, Canada","lon":-71.20278,"lat":46.812187},{"location":"Revelstoke, Canada","lon":-118.19521,"lat":50.998775},{"location":"Oakland, United States","lon":-122.27058,"lat":37.805305},{"location":"Winters, United States","lon":-121.96835,"lat":38.520924},{"location":"Malibu, United States","lon":-118.68561,"lat":34.03688},{"location":"Alhambra, United States","lon":-112.11178,"lat":33.524025},{"location":"Los Alamos, United States","lon":-120.27954,"lat":34.74409},{"location":"Billerica, United States","lon":-71.27024,"lat":42.562347},{"location":"Victoria, Canada","lon":-123.36747,"lat":48.426594},{"location":"Redmond, United States","lon":-122.12153,"lat":47.673904},{"location":"Golden, Canada","lon":-116.96537,"lat":51.30045},{"location":"Wilmington, United States","lon":-75.546936,"lat":39.745216},{"location":"Bellingham, United States","lon":-122.480225,"lat":48.750443},{"location":"Reno, United States","lon":-119.81292,"lat":39.52578},{"location":"Newark, United States","lon":-74.1735,"lat":40.733185},{"location":"Ketchum, United States","lon":-114.36426,"lat":43.680645},{"location":"Chatham, Canada","lon":-82.18718,"lat":42.40549},{"location":"Peterborough, Canada","lon":-78.32007,"lat":44.30591},{"location":"Bend, United States","lon":-121.31226,"lat":44.059025},{"location":"Columbia, United States","lon":-81.033554,"lat":34.001312},{"location":"Troutman, United States","lon":-80.88874,"lat":35.70183},{"location":"Sun Valley, United States","lon":-118.38779,"lat":34.22253},{"location":"Oliver, Canada","lon":-113.52498,"lat":53.54095},{"location":"Seattle, United States","lon":-122.330284,"lat":47.603245},{"location":"Schaumburg, United States","lon":-88.08326,"lat":42.034496},{"location":"Chino, United States","lon":-117.6892,"lat":34.013317},{"location":"Squamish, Canada","lon":-123.152214,"lat":49.69997},{"location":"Chula Vista, United States","lon":-117.07996,"lat":32.641277},{"location":"Kaleden, Canada","lon":-119.59546,"lat":49.390343},{"location":"Ferndale, United States","lon":-83.13483,"lat":42.460598},{"location":"Santa Cruz, United States","lon":-122.02717,"lat":36.97331},{"location":"Salinas, United States","lon":-121.65644,"lat":36.675472},{"location":"New York, United States","lon":-74.005994,"lat":40.712749},{"location":"Bozeman, United States","lon":-111.03573,"lat":45.679302},{"location":"Summit, United States","lon":-74.3587,"lat":40.718002},{"location":"Rockaway Township, United States","lon":-74.48719,"lat":40.930088},{"location":"Nevada City, United States","lon":-121.01875,"lat":39.262627},{"location":"Scotts Valley, United States","lon":-122.01434,"lat":37.051586},{"location":"Red Deer, Canada","lon":-113.811516,"lat":52.268974},{"location":"Middletown, United States","lon":-72.64975,"lat":41.56046},{"location":"Belmar, United States","lon":-74.02488,"lat":40.181377},{"location":"Suffolk, United States","lon":-76.58321,"lat":36.728195},{"location":"Edgefield, United States","lon":-81.92969,"lat":33.78974},{"location":"St. Albert, Canada","lon":-113.62715,"lat":53.63249},{"location":"pottsboro, United States","lon":-96.65579,"lat":33.76258},{"location":"Bronx, United States","lon":-73.8972,"lat":40.847},{"location":"Colorado Springs, United States","lon":-104.82188,"lat":38.83242},{"location":"Flagstaff, United States","lon":-111.64809,"lat":35.197186},{"location":"Queens, United States","lon":-73.8283,"lat":40.7135},{"location":"Red Rock, United States","lon":-97.17858,"lat":36.460533},{"location":"Courtenay, Canada","lon":-124.99727,"lat":49.691437},{"location":"San Jose, United States","lon":-121.89061,"lat":37.33616},{"location":"Rapid City, United States","lon":-103.22733,"lat":44.08003},{"location":"Pocatello, United States","lon":-112.443504,"lat":42.866524},{"location":"Glendora, United States","lon":-117.865486,"lat":34.13601},{"location":"Cincinnati, United States","lon":-84.5133,"lat":39.10244},{"location":"Bracebridge, Canada","lon":-79.31067,"lat":45.041317},{"location":"Port Alberni, Canada","lon":-124.80616,"lat":49.23469},{"location":"Thousand Oaks, United States","lon":-118.836914,"lat":34.169804},{"location":"Chilliwack, Canada","lon":-121.95257,"lat":49.17095},{"location":"Cottonwood, United States","lon":-112.00976,"lat":34.73952},{"location":"Kalispell, United States","lon":-114.31311,"lat":48.196808},{"location":"Wyckoff, United States","lon":-74.17282,"lat":41.010612},{"location":"Oakville, Canada","lon":-79.66825,"lat":43.445732},{"location":"Torrance, United States","lon":-118.34134,"lat":33.83717},{"location":"Pemberton, Canada","lon":-122.80772,"lat":50.32243},{"location":"Asheville, United States","lon":-82.551926,"lat":35.595524},{"location":"Damariscotta, United States","lon":-69.531784,"lat":44.03282},{"location":"Santa Clara, United States","lon":-121.9619,"lat":37.35231},{"location":"Havelock, United States","lon":-76.90367,"lat":34.876274},{"location":"Alamogordo, United States","lon":-105.960304,"lat":32.89977},{"location":"St. Louis, United States","lon":-90.19835,"lat":38.627464},{"location":"Vista, United States","lon":-117.24344,"lat":33.201584},{"location":"Mexico City, M\u00e9xico","lon":-99.133178,"lat":19.43263},{"location":"Carlsbad, United States","lon":-117.34871,"lat":33.1596},{"location":"Mountain View, United States","lon":-122.078964,"lat":37.393818},{"location":"Davis, United States","lon":-121.738961,"lat":38.543559},{"location":"Georgetown, Canada","lon":-79.90365,"lat":43.650234},{"location":"Sunrise, United States","lon":-80.27851,"lat":26.166464},{"location":"Oregon City, United States","lon":-122.60846,"lat":45.357803},{"location":"Staatsburg, United States","lon":-73.928925,"lat":41.848434},{"location":"Totowa, United States","lon":-74.21621,"lat":40.903503},{"location":"Buckeye, United States","lon":-112.58358,"lat":33.37049},{"location":"Irvine, United States","lon":-117.82634,"lat":33.684616},{"location":"Moorpark, United States","lon":-118.885445,"lat":34.27893},{"location":"lebanon, United States","lon":-86.2909,"lat":36.20795},{"location":"Palm Desert, United States","lon":-116.38035,"lat":33.721245},{"location":"highland, United States","lon":-117.18141,"lat":34.112736},{"location":"Yucaipa, United States","lon":-117.04308,"lat":34.033836},{"location":"Half Moon Bay, United States","lon":-122.429245,"lat":37.463634},{"location":"Coquitlam, Canada","lon":-122.79413,"lat":49.27962},{"location":"St-Sauveur, Canada","lon":-71.234955,"lat":46.81189},{"location":"Santa Clarita, United States","lon":-118.53604,"lat":34.428513},{"location":"Enumclaw, United States","lon":-121.98976,"lat":47.20358},{"location":"Sylmar, United States","lon":-118.449698,"lat":34.307605},{"location":"Canmore, Canada","lon":-115.35841,"lat":51.089226},{"location":"Temecula, United States","lon":-117.1488,"lat":33.493397},{"location":"Gunnison, United States","lon":-106.92693,"lat":38.544395},{"location":"Pagosa Springs, United States","lon":-107.011086,"lat":37.268626},{"location":"Powell River, Canada","lon":-124.52818,"lat":49.840736},{"location":"Belmont, United States","lon":-73.88687,"lat":40.8552},{"location":"Kirkland, United States","lon":-122.207115,"lat":47.676563},{"location":"Incline Village, United States","lon":-119.95269,"lat":39.24968},{"location":"Barrie, Canada","lon":-79.69011,"lat":44.38927},{"location":"Long Beach, United States","lon":-118.19367,"lat":33.7693},{"location":"Charlottesville, United States","lon":-78.47748,"lat":38.030396},{"location":"Farmington, United States","lon":-108.205536,"lat":36.728073},{"location":"Summerland, Canada","lon":-119.66641,"lat":49.60024},{"location":"Grass Valley, United States","lon":-121.062065,"lat":39.219143},{"location":"Plymouth, United States","lon":-70.665054,"lat":41.95705},{"location":"Tillamook, United States","lon":-123.84316,"lat":45.456326},{"location":"Orillia, Canada","lon":-79.41676,"lat":44.607967},{"location":"Santee, United States","lon":-116.98679,"lat":32.83876},{"location":"Brandenburg, United States","lon":-86.17206,"lat":38.000977},{"location":"Ventura, United States","lon":-119.29468,"lat":34.280823},{"location":"Banff, Canada","lon":-115.57096,"lat":51.176613},{"location":"Prince George, Canada","lon":-122.74509,"lat":53.91579},{"location":"San Francisco, United States","lon":-122.419359,"lat":37.779238},{"location":"Cumberland, Canada","lon":-125.027794,"lat":49.61911},{"location":"Twin Falls, United States","lon":-114.46915,"lat":42.55655},{"location":"Sidney, Canada","lon":-123.395905,"lat":48.648903},{"location":"Somerville, United States","lon":-71.096375,"lat":42.37967},{"location":"Raynham, United States","lon":-71.07289,"lat":41.948994},{"location":"Las Vegas, United States","lon":-115.14062,"lat":36.169212},{"location":"Charlotte, United States","lon":-80.84309,"lat":35.227207},{"location":"Langley, Canada","lon":-122.6542,"lat":49.10319},{"location":"Conifer, United States","lon":-105.30602,"lat":39.52219},{"location":"Reston, United States","lon":-77.358604,"lat":38.95716},{"location":"Fernie, Canada","lon":-115.0616,"lat":49.50303},{"location":"Cedar Hills, United States","lon":-122.80238,"lat":45.506245},{"location":"Glenwood Springs, United States","lon":-107.32475,"lat":39.5467},{"location":"White Plains, United States","lon":-73.76623,"lat":41.031403},{"location":"Haliburton, Canada","lon":-78.50864,"lat":45.046394},{"location":"Bloomington, United States","lon":-86.53488,"lat":39.166595},{"location":"Jackson, United States","lon":-84.40712,"lat":42.24658},{"location":"Missoula, United States","lon":-113.99405,"lat":46.87211},{"location":"San Joseother, United States","lon":-84.072081,"lat":42.424771},{"location":"Waitsfield, United States","lon":-72.82441,"lat":44.190144},{"location":"Centennial, United States","lon":-104.87363,"lat":39.580357},{"location":"Smithers, Canada","lon":-127.17195,"lat":54.779644},{"location":"Glastonbury, United States","lon":-72.60867,"lat":41.71247},{"location":"Lehi, United States","lon":-111.849205,"lat":40.38788},{"location":"Patagonia, United States","lon":-110.75196,"lat":31.541677},{"location":"Boston, United States","lon":-71.0568,"lat":42.35888},{"location":"Franklin, United States","lon":-86.8687,"lat":35.924862},{"location":"Dresher, United States","lon":-75.167755,"lat":40.14299},{"location":"Scarsdale, United States","lon":-73.8083,"lat":40.988743},{"location":"Spring, United States","lon":-95.41871,"lat":30.079535},{"location":"Fresno, United States","lon":-119.78708,"lat":36.73608},{"location":"Morgantown, United States","lon":-79.95593,"lat":39.629784},{"location":"Distrito, M\u00e9xico","lon":120.720375,"lat":15.064564},{"location":"Monterrey, M\u00e9xico","lon":-100.313821,"lat":25.680522},{"location":"Longmont, United States","lon":-105.10252,"lat":40.16465},{"location":"Fort Worth, United States","lon":-97.33153,"lat":32.75352},{"location":"Malta, United States","lon":-73.791855,"lat":42.973328},{"location":"Cloverdale, Canada","lon":-122.721405,"lat":49.118767},{"location":"Dayton, United States","lon":-84.19637,"lat":39.75878},{"location":"Enterprise, United States","lon":-115.1901,"lat":36.040417},{"location":"Brevard, United States","lon":-82.73429,"lat":35.233734},{"location":"Paoli, United States","lon":-75.48061,"lat":40.042038},{"location":"Copper Mountain, United States","lon":-106.15154,"lat":39.50164},{"location":"Denver, United States","lon":-104.98611,"lat":39.74168},{"location":"Wixom, United States","lon":-83.535965,"lat":42.52435},{"location":"East Granby, United States","lon":-72.72745,"lat":41.94347},{"location":"Stowe, United States","lon":-72.68743,"lat":44.465443},{"location":"Vernon, United States","lon":-72.466156,"lat":41.838303},{"location":"Derby, United States","lon":-97.27016,"lat":37.54653},{"location":"Buffalo, United States","lon":-78.87865,"lat":42.88679},{"location":"Flower Mound, United States","lon":-97.08796,"lat":33.029045},{"location":"Broadalbin, United States","lon":-74.19641,"lat":43.058662},{"location":"Batavia, United States","lon":-84.17681,"lat":39.076572},{"location":"Minneapolis, United States","lon":-93.2661,"lat":44.976105},{"location":"Phoenix, United States","lon":-112.075096,"lat":33.44823},{"location":"Eagle, United States","lon":-116.3513,"lat":43.695194},{"location":"Atlanta, United States","lon":-84.389854,"lat":33.7508},{"location":"Chase, Canada","lon":-119.68463,"lat":50.818825},{"location":"Mendon, United States","lon":-71.55158,"lat":42.105453},{"location":"Richmond, United States","lon":-77.43465,"lat":37.53587},{"location":"Niantic, United States","lon":-72.19187,"lat":41.32358},{"location":"Nelson, Canada","lon":-117.29476,"lat":49.49286},{"location":"Castaic, United States","lon":-118.628815,"lat":34.48404},{"location":"Breckenridge, United States","lon":-106.04615,"lat":39.4822},{"location":"Exshaw, Canada","lon":-115.16355,"lat":51.05891},{"location":"Chico, United States","lon":-121.8405,"lat":39.729023},{"location":"Valencia, United States","lon":-118.6043,"lat":34.42697},{"location":"Moab, United States","lon":-109.55079,"lat":38.57327},{"location":"East Brunswick, United States","lon":-74.41697,"lat":40.427414},{"location":"Kingston, Canada","lon":-76.48418,"lat":44.23184},{"location":"Ponoka, Canada","lon":-113.57607,"lat":52.67613},{"location":"New Berlin, United States","lon":-88.1086,"lat":42.97626},{"location":"Hailey, United States","lon":-114.31466,"lat":43.518677},{"location":"Vail, United States","lon":-106.37437,"lat":39.641003},{"location":"Upland, United States","lon":-117.64711,"lat":34.09611},{"location":"Delta, Canada","lon":-123.056625,"lat":49.085167},{"location":"Penticton, Canada","lon":-119.5944,"lat":49.500076},{"location":"Kentville, Canada","lon":-64.494225,"lat":45.077213},{"location":"Los Angeles, United States","lon":-118.25419,"lat":34.04805},{"location":"Ft Laudedale, United States","lon":-80.14043,"lat":26.119143},{"location":"Boise, United States","lon":-116.202324,"lat":43.615044},{"location":"Jeffersonsville, United States","lon":-85.73951,"lat":38.270702},{"location":"Poway, United States","lon":-117.03972,"lat":32.956364},{"location":"Orange County, United States","lon":-72.447789,"lat":43.988665},{"location":"Spearfish, United States","lon":-103.85913,"lat":44.490623},{"location":"Provo, United States","lon":-111.65881,"lat":40.233788},{"location":"Atascadero, United States","lon":-120.67038,"lat":35.489357},{"location":"Big Bear Lake, United States","lon":-116.911476,"lat":34.243683},{"location":"ayr, Canada","lon":-80.44984,"lat":43.285625},{"location":"Longueuil, Canada","lon":-73.46417,"lat":45.522026},{"location":"Ballard, United States","lon":-76.88252,"lat":38.769123},{"location":"Gainesville, United States","lon":-82.32501,"lat":29.651949},{"location":"San Clemente, United States","lon":-117.61263,"lat":33.427567},{"location":"Sainte-Anne-des-Monts, Canada","lon":-66.48716,"lat":49.130478},{"location":"Tabernash, United States","lon":-105.84474,"lat":39.992756},{"location":"Palm Coast, United States","lon":-81.22773,"lat":29.549795},{"location":"Athens, United States","lon":-83.37524,"lat":33.957714},{"location":"San Dimas, United States","lon":-117.804886,"lat":34.106663},{"location":"Durango, United States","lon":-107.88072,"lat":37.273388},{"location":"Gallipolis, United States","lon":-82.20332,"lat":38.80925},{"location":"Pleasant Grove, United States","lon":-96.682924,"lat":32.734316},{"location":"Dallas, United States","lon":-96.79976,"lat":32.781338},{"location":"Weston, United States","lon":-80.39968,"lat":26.099977},{"location":"Salt Lake City, United States","lon":-111.88978,"lat":40.76276},{"location":"El Paso, United States","lon":-106.48814,"lat":31.755064},{"location":"Telluride, United States","lon":-107.81077,"lat":37.937145},{"location":"Calimesa, United States","lon":-117.058426,"lat":33.996056},{"location":"Mesa, United States","lon":-111.83148,"lat":33.4152},{"location":"Lyndonville, United States","lon":-72.002884,"lat":44.53359},{"location":"Oakridge, United States","lon":-118.97362,"lat":35.368504},{"location":"Sudbury, Canada","lon":-80.99303,"lat":46.492207},{"location":"Old Saybrook, United States","lon":-72.37596,"lat":41.28992},{"location":"Fredericksburg, United States","lon":-77.46066,"lat":38.3033},{"location":"Basalt, United States","lon":-107.03415,"lat":39.368965},{"location":"Los Lunas, United States","lon":-106.75712,"lat":34.81352},{"location":"Burbank, United States","lon":-118.308108,"lat":34.182075},{"location":"Westmont, United States","lon":-118.3003,"lat":33.93821},{"location":"Lincoln, United States","lon":-96.70119,"lat":40.809193},{"location":"Steamboat Springs, United States","lon":-106.83357,"lat":40.4855},{"location":"Plattsburgh, United States","lon":-73.45221,"lat":44.69775},{"location":"Livingston, United States","lon":-94.933,"lat":30.711},{"location":"My City, Canada","lon":-66.056628,"lat":45.281549},{"location":"Wayne, United States","lon":-74.23923,"lat":40.94897},{"location":"Mill Valley, United States","lon":-122.54751,"lat":37.905575},{"location":"Ladner, Canada","lon":-123.083513,"lat":49.082902},{"location":"Long island, United States","lon":-73.253616,"lat":40.805805},{"location":"Deptford, United States","lon":-75.124825,"lat":39.82782},{"location":"Innisfil, Canada","lon":-79.54759,"lat":44.314976},{"location":"Columbus, United States","lon":-83.00064,"lat":39.96223},{"location":"North Phoenix, United States","lon":-109.835852,"lat":32.257859},{"location":"Valparaiso, United States","lon":-87.060974,"lat":41.467793},{"location":"Stratford, Canada","lon":-80.98212,"lat":43.370518},{"location":"Hinesburg, United States","lon":-73.11025,"lat":44.328953},{"location":"Maple Valley, United States","lon":-122.04246,"lat":47.365612},{"location":"Mount Shasta, United States","lon":-122.31231,"lat":41.31325},{"location":"Clearwater, Canada","lon":-120.064705,"lat":51.6494},{"location":"Fairfield, United States","lon":-122.04324,"lat":38.249233},{"location":"Princeton, United States","lon":-74.65975,"lat":40.34967},{"location":"Santa Fe, United States","lon":-105.93885,"lat":35.68785},{"location":"Leavenworth, United States","lon":-94.91397,"lat":39.319057},{"location":"Fremont, United States","lon":-121.98184,"lat":37.553867},{"location":"Spokane, United States","lon":-117.42503,"lat":47.659016},{"location":"Whitmore Lake, United States","lon":-83.74484,"lat":42.439865},{"location":"Shelburne, United States","lon":-73.22846,"lat":44.378216},{"location":"St. Catharines, Canada","lon":-79.24409,"lat":43.15793},{"location":"Kananaskis Country, Canada","lon":-115.146355,"lat":50.91824},{"location":"Valemount, Canada","lon":-119.27934,"lat":52.831165},{"location":"Hinton, Canada","lon":-117.59145,"lat":53.399597},{"location":"Lakeway, United States","lon":-97.98908,"lat":30.36423},{"location":"Cochrane, Canada","lon":-114.47099,"lat":51.190628},{"location":"Kingston, United States","lon":-71.523125,"lat":41.48513},{"location":"College Park, United States","lon":-76.93798,"lat":38.980858},{"location":"Wenatchee, United States","lon":-120.311676,"lat":47.42298},{"location":"Rochester, United States","lon":-77.61253,"lat":43.155716},{"location":"Chappaqua, United States","lon":-73.773705,"lat":41.158524},{"location":"Pottstown, United States","lon":-75.65042,"lat":40.24567},{"location":"Northridge, United States","lon":-118.536095,"lat":34.23551},{"location":"Sherman Oaks, United States","lon":-118.44871,"lat":34.150925},{"location":"Enderby, Canada","lon":-119.14014,"lat":50.55029},{"location":"Ca\u00f1on City, United States","lon":-105.238785,"lat":38.440342},{"location":"Meridian, United States","lon":-88.700424,"lat":32.365036},{"location":"Lyman, United States","lon":-82.12553,"lat":34.955612},{"location":"Golden, United States","lon":-105.221344,"lat":39.755405},{"location":"Caledon, Canada","lon":-79.83028,"lat":43.755005},{"location":"Woodinville, United States","lon":-122.1591,"lat":47.754475},{"location":"Hibbing, United States","lon":-92.93657,"lat":47.4275},{"location":"Racine, United States","lon":-87.783905,"lat":42.726757},{"location":"Windsor, United States","lon":-72.64424,"lat":41.850235},{"location":"Clinton, United States","lon":-76.89811,"lat":38.76525},{"location":"Cedar Rapids, United States","lon":-91.665825,"lat":41.977646},{"location":"Medina, United States","lon":-81.86399,"lat":41.139137},{"location":"Chandler, United States","lon":-111.84142,"lat":33.30232},{"location":"Puyallup, United States","lon":-122.29371,"lat":47.19044},{"location":"Mont Tremblant, Canada","lon":-74.58891,"lat":46.11869},{"location":"Corvallis, United States","lon":-123.26197,"lat":44.56464},{"location":"Vienna, United States","lon":-77.26521,"lat":38.90157},{"location":"Lakeside, United States","lon":-116.92301,"lat":32.85714},{"location":"Philadelphia, United States","lon":-75.166855,"lat":39.952755},{"location":"Port Coquitlam, Canada","lon":-122.781136,"lat":49.262833},{"location":"Fairfax, United States","lon":-77.3066,"lat":38.846268},{"location":"Durham, United States","lon":-78.90064,"lat":35.99504},{"location":"Hanover, United States","lon":-76.724304,"lat":39.192696},{"location":"Lethbridge, Canada","lon":-112.83699,"lat":49.694427},{"location":"Fermont, Canada","lon":-67.08809,"lat":52.798264},{"location":"Diamond Bar, United States","lon":-117.81065,"lat":34.028595},{"location":"Rutherford, United States","lon":-74.10516,"lat":40.82698},{"location":"Lexington, United States","lon":-84.49801,"lat":38.04569},{"location":"Bristow, United States","lon":-77.53679,"lat":38.723427},{"location":"San Mateo, United States","lon":-122.325287,"lat":37.562984},{"location":"Rockland, United States","lon":-70.91495,"lat":42.127758},{"location":"Crowsnest Pass, Canada","lon":-114.472859,"lat":49.629059},{"location":"Elkins, United States","lon":-79.84563,"lat":38.925102},{"location":"Ligonier, United States","lon":-85.58761,"lat":41.464676},{"location":"Brandon, United States","lon":-82.29391,"lat":27.937801},{"location":"Gastonia, United States","lon":-81.18195,"lat":35.263798},{"location":"Comox, Canada","lon":-124.927925,"lat":49.673904},{"location":"Tacoma, United States","lon":-122.442,"lat":47.255127},{"location":"Gilford, United States","lon":-71.40753,"lat":43.548313},{"location":"Vacaville, United States","lon":-121.98864,"lat":38.356144},{"location":"Enfield, United States","lon":-72.57599,"lat":41.978855},{"location":"Litchfield, United States","lon":-89.65544,"lat":39.176357},{"location":"Joliette, Canada","lon":-73.440216,"lat":46.02478},{"location":"Hurricane, United States","lon":-82.0193,"lat":38.43178},{"location":"Canton, United States","lon":-81.37654,"lat":40.798813},{"location":"Novato, United States","lon":-122.56791,"lat":38.105904},{"location":"Brandon, Canada","lon":-99.95143,"lat":49.848454},{"location":"Peachtree City, United States","lon":-84.59115,"lat":33.39733},{"location":"Westport, United States","lon":-73.36145,"lat":41.141342},{"location":"Hendersonville, United States","lon":-86.619965,"lat":36.304916},{"location":"Laguna Beach, United States","lon":-117.78334,"lat":33.54205},{"location":"West Jordan, United States","lon":-111.93882,"lat":40.605644},{"location":"Walla Walla, United States","lon":-118.34006,"lat":46.06755},{"location":"Snoqualmie, United States","lon":-121.82537,"lat":47.528843},{"location":"Potsdam, United States","lon":-74.986855,"lat":44.66983},{"location":"Peninsula, United States","lon":-81.54804,"lat":41.241207},{"location":"Bradford, United States","lon":-78.6481,"lat":41.95593},{"location":"Circleville, United States","lon":-82.9451,"lat":39.601887},{"location":"Cody, United States","lon":-109.06395,"lat":44.52608},{"location":"Grand Junction, United States","lon":-108.564445,"lat":39.068314},{"location":"Detroit, United States","lon":-83.04622,"lat":42.331398},{"location":"Vallejo, United States","lon":-122.258286,"lat":38.10114},{"location":"Surrey, Canada","lon":-122.85067,"lat":49.191654},{"location":"Yakima, United States","lon":-120.50607,"lat":46.60225},{"location":"Moscow, United States","lon":-117.000015,"lat":46.732365},{"location":"Washington, United States","lon":-120.094293,"lat":48.025005},{"location":"Randolph, United States","lon":-71.04246,"lat":42.16051},{"location":"Ogden, United States","lon":-111.971886,"lat":41.22277},{"location":"Keansburg, United States","lon":-74.1299,"lat":40.441887},{"location":"Jasper, Canada","lon":-118.08242,"lat":52.876007},{"location":"Oshawa, Canada","lon":-78.86364,"lat":43.897564},{"location":"Oak Ridge, United States","lon":-84.26957,"lat":36.010296},{"location":"Corte Madera, United States","lon":-122.52654,"lat":37.925526},{"location":"Escondido, United States","lon":-117.08195,"lat":33.12267},{"location":"Leonia, United States","lon":-73.98795,"lat":40.86174},{"location":"Rancho Santa Margarita, United States","lon":-117.592415,"lat":33.638245},{"location":"Graham, United States","lon":-122.27979,"lat":47.040104},{"location":"Costa Mesa, United States","lon":-117.90477,"lat":33.66387},{"location":"Vaughan, Canada","lon":-79.52545,"lat":43.79403},{"location":"San Antonio, United States","lon":-98.491486,"lat":29.424534},{"location":"Gilbert, United States","lon":-111.78969,"lat":33.355743},{"location":"Alpine, United States","lon":-103.66171,"lat":30.358496},{"location":"Pensacola, United States","lon":-87.215126,"lat":30.409666},{"location":"Pleasanton, United States","lon":-121.87586,"lat":37.660473},{"location":"Port Moody, Canada","lon":-122.82805,"lat":49.28235},{"location":"Mission, Canada","lon":-122.28281,"lat":49.158154},{"location":"Maple Ridge, Canada","lon":-122.601524,"lat":49.216915},{"location":"Wausau, United States","lon":-89.626656,"lat":44.96057},{"location":"Prescott, United States","lon":-112.470146,"lat":34.54191},{"location":"Davidson, United States","lon":-80.84848,"lat":35.499256},{"location":"Branson, United States","lon":-93.21819,"lat":36.643078},{"location":"Sparwood, Canada","lon":-114.88744,"lat":49.731804},{"location":"Cardiff, United States","lon":-117.27287,"lat":33.035213},{"location":"Apache Junction, United States","lon":-111.55026,"lat":33.414642},{"location":"Acworth, United States","lon":-84.67755,"lat":34.06609},{"location":"Morrisville, United States","lon":-78.82901,"lat":35.82525},{"location":"Colville, United States","lon":-117.90579,"lat":48.5444},{"location":"Ivins, United States","lon":-113.67958,"lat":37.168335},{"location":"Colton, United States","lon":-117.32341,"lat":34.071224},{"location":"Saint-Hubert, Canada","lon":-73.42168,"lat":45.504086},{"location":"Pittsboro, United States","lon":-79.17755,"lat":35.72019},{"location":"Petaluma, United States","lon":-122.64028,"lat":38.234055},{"location":"East Wenatchee, United States","lon":-120.29222,"lat":47.41368},{"location":"Raleigh, United States","lon":-78.638145,"lat":35.779556},{"location":"Quakertown, United States","lon":-75.335434,"lat":40.441364},{"location":"Logan, United States","lon":-111.83489,"lat":41.735226},{"location":"Beamsville, Canada","lon":-79.47525,"lat":43.165356},{"location":"Hillsborough, United States","lon":-78.64733,"lat":35.78492},{"location":"Deerfield Beach, United States","lon":-80.09976,"lat":26.318338},{"location":"Helena, United States","lon":-112.03854,"lat":46.588856},{"location":"Brooksville, United States","lon":-82.38786,"lat":28.555637},{"location":"Toms River, United States","lon":-74.196849,"lat":39.952619},{"location":"Newington, United States","lon":-72.72299,"lat":41.696262},{"location":"Wake Forest, United States","lon":-78.50979,"lat":35.97791},{"location":"Wilton, United States","lon":-73.4324,"lat":41.194405},{"location":"Kinnelon, United States","lon":-74.366806,"lat":41.00194},{"location":"Victorville, United States","lon":-117.2911,"lat":34.53499},{"location":"Castle Rock, United States","lon":-104.86001,"lat":39.37227},{"location":"Holly Springs, United States","lon":-78.83366,"lat":35.649807},{"location":"Lynchburg, United States","lon":-79.141556,"lat":37.414017},{"location":"Burlington, Canada","lon":-79.7983,"lat":43.326},{"location":"Boucherville, Canada","lon":-73.453606,"lat":45.604267},{"location":"Augusta, United States","lon":-81.96541,"lat":33.475143},{"location":"Omaha, United States","lon":-95.940956,"lat":41.25657},{"location":"Campbell, United States","lon":-121.94488,"lat":37.287872},{"location":"Alexandria, United States","lon":-77.043625,"lat":38.80463},{"location":"Verona, United States","lon":-89.533485,"lat":42.9905},{"location":"Forestville, United States","lon":-76.87405,"lat":38.844597},{"location":"La Mirada, United States","lon":-118.011734,"lat":33.908867},{"location":"South Jordan, United States","lon":-111.93868,"lat":40.558502},{"location":"Dundas, Canada","lon":-79.95376,"lat":43.26607},{"location":"Henderson, United States","lon":-114.97999,"lat":36.02974},{"location":"Milverton, Canada","lon":-80.92218,"lat":43.565857},{"location":"Clayton, United States","lon":-78.456604,"lat":35.65055},{"location":"Carbondale, United States","lon":-89.21674,"lat":37.725246},{"location":"Madison, United States","lon":-89.38219,"lat":43.073196},{"location":"Emporia, United States","lon":-96.18016,"lat":38.404995},{"location":"Blakeslee, United States","lon":-75.59263,"lat":41.09269},{"location":"Littleton, United States","lon":-105.0162,"lat":39.613697},{"location":"Laredo, United States","lon":-99.507568,"lat":27.502862},{"location":"Skokie, United States","lon":-87.75465,"lat":42.026337},{"location":"Tahoe, United States","lon":-83.352082,"lat":42.768708},{"location":"Hawaii 5-0, United States","lon":-74.25978,"lat":40.428999},{"location":"Exeter, Canada","lon":-81.48032,"lat":43.34595},{"location":"Gresham, United States","lon":-122.43099,"lat":45.499706},{"location":"Orono, United States","lon":-68.67208,"lat":44.883537},{"location":"Lacombe, Canada","lon":-113.730644,"lat":52.46312},{"location":"Sherman, United States","lon":-96.60929,"lat":33.636536},{"location":"Oxford, United States","lon":-89.5188,"lat":34.366783},{"location":"Bragg Creek, Canada","lon":-114.55994,"lat":50.95174},{"location":"Marquette, United States","lon":-87.39536,"lat":46.543568},{"location":"Yorkton, Canada","lon":-102.45993,"lat":51.21201},{"location":"Monterey, United States","lon":-121.89346,"lat":36.599823},{"location":"Alamo, United States","lon":-98.122345,"lat":26.188816},{"location":"Agoura Hills, United States","lon":-118.75626,"lat":34.143433},{"location":"Altadena, United States","lon":-118.131294,"lat":34.190174},{"location":"Hanford, United States","lon":-119.64693,"lat":36.32779},{"location":"Park City, United States","lon":-111.49698,"lat":40.645714},{"location":"okanagan, Canada","lon":-119.306681,"lat":50.31959},{"location":"Downieville, United States","lon":-105.613686,"lat":39.76602},{"location":"Chippewa Falls, United States","lon":-91.39374,"lat":44.93555},{"location":"Mt Orab, United States","lon":-83.91972,"lat":39.027702},{"location":"St Charles, United States","lon":-90.48253,"lat":38.781555},{"location":"Auburn, United States","lon":-85.48173,"lat":32.60655},{"location":"Haddonfield, United States","lon":-75.03165,"lat":39.898174},{"location":"Lathrop, United States","lon":-121.276855,"lat":37.82274},{"location":"Whittier, United States","lon":-118.033841,"lat":33.974922},{"location":"Holmdel, United States","lon":-74.184456,"lat":40.345158},{"location":"Ottawa, Canada","lon":-75.69779,"lat":45.420204},{"location":"Green Bay, United States","lon":-88.01329,"lat":44.513313},{"location":"DeWinton, Canada","lon":-61.394754,"lat":-32.819095},{"location":"Woodland Hills, United States","lon":-118.603806,"lat":34.168453},{"location":"Milford, United States","lon":-73.05672,"lat":41.2224},{"location":"Davenport, United States","lon":-90.57705,"lat":41.522415},{"location":"Salmon Arm, Canada","lon":-119.281906,"lat":50.70096},{"location":"Oceanside, United States","lon":-117.37952,"lat":33.1959},{"location":"Palm Beach Gardens, United States","lon":-80.1387,"lat":26.823544},{"location":"Castlegar, Canada","lon":-117.66423,"lat":49.31644},{"location":"Menlo Park, United States","lon":-122.183,"lat":37.453526},{"location":"Parker, United States","lon":-104.76283,"lat":39.518543},{"location":"Kingsburg, United States","lon":-119.55286,"lat":36.514744},{"location":"Murrieta, United States","lon":-117.21421,"lat":33.55369},{"location":"Corpus Christi, United States","lon":-97.403291,"lat":27.763557},{"location":"Yellowknife, Canada","lon":-114.37184,"lat":62.454044},{"location":"Tenafly, United States","lon":-73.96476,"lat":40.92519},{"location":"Albany, United States","lon":-73.75274,"lat":42.649864},{"location":"Winthrop Harbor, United States","lon":-87.82292,"lat":42.48238},{"location":"Los Gatos, United States","lon":-121.9839,"lat":37.222546},{"location":"Yorktown, United States","lon":-76.51078,"lat":37.23347},{"location":"Greencastle, United States","lon":-77.72768,"lat":39.790245},{"location":"Canandaigua, United States","lon":-77.278365,"lat":42.884387},{"location":"West Hawk Lake, Canada","lon":-93.983333,"lat":49.8},{"location":"Doral, United States","lon":-80.35474,"lat":25.82077},{"location":"Russellville, United States","lon":-93.13373,"lat":35.27813},{"location":"Fitchburg, United States","lon":-71.801735,"lat":42.58362},{"location":"Carleton Place, Canada","lon":-76.146614,"lat":45.14034},{"location":"Leadville, United States","lon":-106.29188,"lat":39.248714},{"location":"Shelton, United States","lon":-73.09362,"lat":41.317448},{"location":"Riverside, United States","lon":-117.374283,"lat":33.982513},{"location":"Lewiston, United States","lon":-70.21691,"lat":44.097603},{"location":"Martinez, United States","lon":-82.0771,"lat":33.517666},{"location":"Evergreen, United States","lon":-86.95456,"lat":31.434246},{"location":"Solon, United States","lon":-81.44263,"lat":41.385105},{"location":"Greenville, United States","lon":-82.3995,"lat":34.84961},{"location":"pittsburg, United States","lon":-94.704834,"lat":37.411064},{"location":"Lakeport, United States","lon":-122.91519,"lat":39.04316},{"location":"Oro-Medonte, Canada","lon":-79.54162,"lat":44.438408},{"location":"Danville, United States","lon":-79.392555,"lat":36.586338},{"location":"Duncan, Canada","lon":-123.70824,"lat":48.77704},{"location":"Patterson, United States","lon":-121.130486,"lat":37.471317},{"location":"Marin, United States","lon":-122.528389,"lat":37.972158},{"location":"Arcata, United States","lon":-124.08744,"lat":40.86747},{"location":"Columbia Falls, United States","lon":-114.18111,"lat":48.37329},{"location":"Hudson, United States","lon":-82.693214,"lat":28.36417},{"location":"Silverton, United States","lon":-122.78248,"lat":45.006104},{"location":"Broomfield, United States","lon":-105.05274,"lat":39.94086},{"location":"Little Rock, United States","lon":-92.27312,"lat":34.746468},{"location":"lumberton, United States","lon":-79.009186,"lat":34.62142},{"location":"Carpinteria, United States","lon":-119.51837,"lat":34.39893},{"location":"Huntsville, United States","lon":-86.585304,"lat":34.729538},{"location":"Cadillac, United States","lon":-85.39937,"lat":44.250294},{"location":"Bella Vista, United States","lon":-94.26618,"lat":36.467403},{"location":"Bel Air, United States","lon":-76.34756,"lat":39.534775},{"location":"North Bend, United States","lon":-121.7869,"lat":47.495453},{"location":"St. George, United States","lon":-113.581184,"lat":37.109837},{"location":"Fayetteville, United States","lon":-78.878105,"lat":35.05251},{"location":"Port Jefferson, United States","lon":-73.06936,"lat":40.946712},{"location":"Wilkes-Barre, United States","lon":-75.88133,"lat":41.245434},{"location":"Parry Sound, Canada","lon":-80.0339,"lat":45.343582},{"location":"Sacramento, United States","lon":-121.493933,"lat":38.581021},{"location":"Scituate, United States","lon":-70.72607,"lat":42.192204},{"location":"Etobicoke, Canada","lon":-79.56626,"lat":43.642597},{"location":"Cherry Hill, United States","lon":-75.03086,"lat":39.934788},{"location":"Wichita, United States","lon":-97.33821,"lat":37.69346},{"location":"Barstow, United States","lon":-117.024449,"lat":34.898613},{"location":"Moose Jaw, Canada","lon":-105.54282,"lat":50.400593},{"location":"Blainville, Canada","lon":-73.886314,"lat":45.67754},{"location":"Pleasant Valley, United States","lon":-97.715729,"lat":30.23101},{"location":"Maple Grove, United States","lon":-93.441666,"lat":45.098377},{"location":"Hemet, United States","lon":-116.96735,"lat":33.747566},{"location":"Wawarsing, United States","lon":-74.35891,"lat":41.75736},{"location":"Prevost, Canada","lon":-74.06992,"lat":45.859917},{"location":"Castro Valley, United States","lon":-122.07617,"lat":37.69554},{"location":"Mount Albert, Canada","lon":-79.30827,"lat":44.13606},{"location":"Setauket, United States","lon":-73.1185,"lat":40.935135},{"location":"Oxnard, United States","lon":-119.17732,"lat":34.19768},{"location":"Knoxville, United States","lon":-83.91625,"lat":35.96176},{"location":"Emmaus, United States","lon":-75.49693,"lat":40.53985},{"location":"Avondale, United States","lon":-112.349686,"lat":33.43534},{"location":"Arroyo Grande, United States","lon":-120.57665,"lat":35.124393},{"location":"Cave Creek, United States","lon":-111.94751,"lat":33.83216},{"location":"Alta, United States","lon":-95.304146,"lat":42.67251},{"location":"Midland, United States","lon":-102.078056,"lat":31.99743},{"location":"San Luis Obispo, United States","lon":-120.662865,"lat":35.27987},{"location":"Jersey City, United States","lon":-74.047455,"lat":40.72157},{"location":"Corona, United States","lon":-117.57483,"lat":33.879433},{"location":"Winston-Salem, United States","lon":-80.24491,"lat":36.098408},{"location":"Mercer Island, United States","lon":-122.22715,"lat":47.57569},{"location":"Evans, United States","lon":-82.13026,"lat":33.53349},{"location":"Shoreline, United States","lon":-122.34562,"lat":47.756023},{"location":"Birmingham, United States","lon":-86.80908,"lat":33.522217},{"location":"Honolulu, United States","lon":-157.86154,"lat":21.308498},{"location":"Chicago, United States","lon":-87.63236,"lat":41.881954},{"location":"Indianapolis, United States","lon":-86.16166,"lat":39.7686},{"location":"Roseville, United States","lon":-121.28306,"lat":38.74835},{"location":"McCall, United States","lon":-116.09793,"lat":44.910263},{"location":"Briarcliff manor, United States","lon":-73.83081,"lat":41.15072},{"location":"Erie, United States","lon":-80.08496,"lat":42.12903},{"location":"Saanich, Canada","lon":-123.377704,"lat":48.459394},{"location":"Brossard, Canada","lon":-73.46846,"lat":45.4561},{"location":"Boynton Beach, United States","lon":-80.06417,"lat":26.528915},{"location":"Viroqua, United States","lon":-90.889366,"lat":43.557117},{"location":"bethany, United States","lon":-97.62909,"lat":35.51143},{"location":"Dighton, United States","lon":-71.12158,"lat":41.814793},{"location":"Minocqua, United States","lon":-89.70834,"lat":45.871445},{"location":"Port Saint Lucie, United States","lon":-80.34967,"lat":27.294434},{"location":"Dana Point, United States","lon":-117.70223,"lat":33.466427},{"location":"Burlington, United States","lon":-73.214005,"lat":44.475883},{"location":"London, Canada","lon":-81.25031,"lat":42.98498},{"location":"Greenbelt, United States","lon":-76.87628,"lat":39.00111},{"location":"Marietta, United States","lon":-84.549065,"lat":33.952286},{"location":"Clearwater, United States","lon":-82.80166,"lat":27.962345},{"location":"Parlin, United States","lon":-74.30671,"lat":40.45591},{"location":"Port Angeles, United States","lon":-123.43271,"lat":48.119907},{"location":"Hood River, United States","lon":-121.51229,"lat":45.70957},{"location":"Jacksonville, United States","lon":-81.65535,"lat":30.326471},{"location":"Aliso Viejo, United States","lon":-117.7235,"lat":33.575317},{"location":"Westfield, United States","lon":-72.75346,"lat":42.120247},{"location":"Lake Havasu City, United States","lon":-114.338524,"lat":34.477695},{"location":"Kentfield, United States","lon":-122.54933,"lat":37.952705},{"location":"St. Charles, United States","lon":-90.48253,"lat":38.781555},{"location":"Blairsville, United States","lon":-83.96005,"lat":34.878574},{"location":"Hinesville, United States","lon":-81.59644,"lat":31.846773},{"location":"West Palm Beach, United States","lon":-80.05495,"lat":26.714449},{"location":"Sherwood Park, Canada","lon":-113.29552,"lat":53.527924},{"location":"Exeter, United States","lon":-70.946526,"lat":42.981415},{"location":"Jefferson, United States","lon":-83.57455,"lat":34.116936},{"location":"Overland Park, United States","lon":-94.68626,"lat":38.973145},{"location":"Northport, United States","lon":-87.57657,"lat":33.229473},{"location":"Stanton, United States","lon":-75.15935,"lat":39.989853},{"location":"Hadley, United States","lon":-72.589066,"lat":42.342293},{"location":"Fort Lauderdale, United States","lon":-80.14043,"lat":26.119143},{"location":"Akron, United States","lon":-81.51757,"lat":41.08088},{"location":"Mercier, Canada","lon":-73.74539,"lat":45.31069},{"location":"Gloucester, United States","lon":-76.53029,"lat":37.415043},{"location":"Elkhorn, United States","lon":-96.23686,"lat":41.2832},{"location":"Seatac, United States","lon":-122.28296,"lat":47.4452},{"location":"Holliston, United States","lon":-71.429405,"lat":42.200806},{"location":"Newburgh, United States","lon":-74.010704,"lat":41.499992},{"location":"Fallon, United States","lon":-118.77705,"lat":39.47489},{"location":"Uxbridge, Canada","lon":-79.12262,"lat":44.10887},{"location":"Wilbraham, United States","lon":-72.454216,"lat":42.12076},{"location":"Fontana, United States","lon":-117.43577,"lat":34.101257},{"location":"Westwood, United States","lon":-84.598465,"lat":39.148792},{"location":"Manitoulin island, Canada","lon":-82.2,"lat":45.766667},{"location":"Burleson, United States","lon":-97.32208,"lat":32.54301},{"location":"Canton de Hatley, Canada","lon":-71.89416,"lat":45.347572},{"location":"Bismarck, United States","lon":-100.784615,"lat":46.80752},{"location":"St. Augustine, United States","lon":-81.31404,"lat":29.892681},{"location":"Easton, United States","lon":-75.20913,"lat":40.690937},{"location":"North Branford, United States","lon":-72.76826,"lat":41.327415},{"location":"Onalaska, United States","lon":-91.23073,"lat":43.88361},{"location":"Rehoboth, United States","lon":-71.25163,"lat":41.841022},{"location":"Sussex, United States","lon":-74.60748,"lat":41.208076},{"location":"Coppell, United States","lon":-96.99361,"lat":32.971073},{"location":"Monroe, United States","lon":-92.102516,"lat":32.511234},{"location":"Kingsford, United States","lon":-88.07202,"lat":45.795177},{"location":"Marshall, United States","lon":-94.367325,"lat":32.54472},{"location":"Wilson, United States","lon":-77.91108,"lat":35.725792},{"location":"Campbell River, Canada","lon":-125.24511,"lat":50.026375},{"location":"Sherbrooke, Canada","lon":-71.890335,"lat":45.401386},{"location":"Beaverton, United States","lon":-122.8063,"lat":45.48836},{"location":"Washington DC, United States","lon":-77.03938,"lat":38.90253},{"location":"Coronado, United States","lon":-117.183065,"lat":32.685779},{"location":"Camarillo, United States","lon":-119.037691,"lat":34.216336},{"location":"Port Hope, Canada","lon":-78.294136,"lat":43.95156},{"location":"Mount Sinai, United States","lon":-73.02959,"lat":40.946957},{"location":"Big Bear, United States","lon":-83.830174,"lat":43.279365},{"location":"Collegeville, United States","lon":-75.45065,"lat":40.185246},{"location":"Hempstead, United States","lon":-73.618721,"lat":40.70619},{"location":"Hamburg, United States","lon":-78.82988,"lat":42.71586},{"location":"Middlebury, United States","lon":-81.492424,"lat":41.07382},{"location":"Merced, United States","lon":-120.48371,"lat":37.303978},{"location":"Sherwood, United States","lon":-92.22465,"lat":34.81459},{"location":"Macungie, United States","lon":-75.55585,"lat":40.51586},{"location":"Los Osos, United States","lon":-120.833176,"lat":35.311325},{"location":"Gardiner, United States","lon":-74.15033,"lat":41.67945},{"location":"Ambridge, United States","lon":-80.23053,"lat":40.593037},{"location":"Hebron, United States","lon":-84.704538,"lat":39.06622},{"location":"Bartlett, United States","lon":-89.8739,"lat":35.20448},{"location":"Mystic, United States","lon":-71.963295,"lat":41.362347},{"location":"Riverton, United States","lon":-111.93859,"lat":40.518696},{"location":"South Berwick, United States","lon":-70.808945,"lat":43.234238},{"location":"ST George, United States","lon":-113.581184,"lat":37.109837},{"location":"Granby, United States","lon":-72.78974,"lat":41.954067},{"location":"Suwanee, United States","lon":-84.07088,"lat":34.051327},{"location":"The Woodlands, United States","lon":-95.50425,"lat":30.173532},{"location":"Atlantic Beach, United States","lon":-81.39827,"lat":30.333496},{"location":"Orland, United States","lon":-122.19543,"lat":39.747356},{"location":"Cleveland, United States","lon":-81.690315,"lat":41.501377},{"location":"Rancho Cucamonga, United States","lon":-117.57577,"lat":34.102825},{"location":"Sanbornton, United States","lon":-71.58367,"lat":43.49222},{"location":"Markham, Canada","lon":-79.33904,"lat":43.854015},{"location":"Newton, United States","lon":-71.20995,"lat":42.337875},{"location":"Aptos, United States","lon":-121.90414,"lat":36.97631},{"location":"El Cajon, United States","lon":-116.962364,"lat":32.79495},{"location":"Amesbury, United States","lon":-70.93084,"lat":42.85737},{"location":"Harrisonburg, United States","lon":-78.86869,"lat":38.449017},{"location":"Marana, United States","lon":-111.21136,"lat":32.44847},{"location":"Redlands, United States","lon":-117.188918,"lat":34.055701},{"location":"Pacifica, United States","lon":-122.50103,"lat":37.5986},{"location":"Dickinson, United States","lon":-95.05182,"lat":29.460752},{"location":"Pitt Meadows, Canada","lon":-122.68961,"lat":49.221676},{"location":"Lebanon, United States","lon":-86.2909,"lat":36.20795},{"location":"Benicia, United States","lon":-122.15304,"lat":38.053703},{"location":"Baltimore, United States","lon":-76.6123,"lat":39.289642},{"location":"Tulsa, United States","lon":-95.989395,"lat":36.15286},{"location":"Compton, United States","lon":-118.2254,"lat":33.895973},{"location":"Southern Pines, United States","lon":-79.39184,"lat":35.173695},{"location":"Rifle, United States","lon":-107.78327,"lat":39.531586},{"location":"L\u00e9vis, Canada","lon":-71.17838,"lat":46.803703},{"location":"El Dorado Hills, United States","lon":-121.07268,"lat":38.656128},{"location":"Woodstock, United States","lon":-84.51938,"lat":34.10131},{"location":"Invermere, Canada","lon":-116.027916,"lat":50.50461},{"location":"Grantham, United States","lon":-72.13603,"lat":43.495056},{"location":"Fargo, United States","lon":-96.78769,"lat":46.876938},{"location":"100 Mile House, Canada","lon":-121.29747,"lat":51.64186},{"location":"Tualatin, United States","lon":-122.75884,"lat":45.383896},{"location":"Waterloo, Canada","lon":-80.52237,"lat":43.465187},{"location":"New Paltz, United States","lon":-74.08688,"lat":41.747524},{"location":"Dieppe, Canada","lon":-64.733925,"lat":46.09501},{"location":"Brush Prairie, United States","lon":-122.552315,"lat":45.72977},{"location":"San Ramon, United States","lon":-121.96011,"lat":37.761524},{"location":"The Dalles, United States","lon":-121.18258,"lat":45.600666},{"location":"Gatineau, Canada","lon":-75.71554,"lat":45.426926},{"location":"Warwick, United States","lon":-71.460045,"lat":41.69903},{"location":"Jericho, United States","lon":-73.53558,"lat":40.78842},{"location":"Encinitas, United States","lon":-117.29385,"lat":33.045986},{"location":"Santa Monica, United States","lon":-118.49516,"lat":34.016426},{"location":"Leander, United States","lon":-97.856685,"lat":30.573252},{"location":"Richmond, Canada","lon":-123.13666,"lat":49.162785},{"location":"Westminster, United States","lon":-105.037415,"lat":39.836338},{"location":"Portola Valley, United States","lon":-122.22048,"lat":37.375267},{"location":"Tustin, United States","lon":-117.823654,"lat":33.742104},{"location":"Bay Area, United States","lon":-122.3939,"lat":37.7952},{"location":"Wentzville, United States","lon":-90.86758,"lat":38.824795},{"location":"Amarillo, United States","lon":-101.835785,"lat":35.207497},{"location":"Shelburne Falls, United States","lon":-72.73806,"lat":42.603603},{"location":"Stoneham, Canada","lon":-71.369849,"lat":46.999719},{"location":"Saint-Denis-de-Brompton, Canada","lon":-72.08027,"lat":45.45781},{"location":"Sussex, Canada","lon":-65.51002,"lat":45.72337},{"location":"Bridgewater, Canada","lon":-64.518654,"lat":44.37756},{"location":"Lynnwood, United States","lon":-122.31497,"lat":47.821224},{"location":"Lawrence, United States","lon":-95.235916,"lat":38.96752},{"location":"Brantford, Canada","lon":-80.263596,"lat":43.13945},{"location":"Fonthill, Canada","lon":-79.28529,"lat":43.03137},{"location":"Chatsworth, United States","lon":-118.6017,"lat":34.259052},{"location":"St John's, Canada","lon":-52.7151,"lat":47.5617},{"location":"Waterbury Center, United States","lon":-72.72073,"lat":44.380314},{"location":"Socorro, United States","lon":-106.30352,"lat":31.654713},{"location":"Gravenhurst, Canada","lon":-79.37411,"lat":44.91981},{"location":"Sanford, United States","lon":-81.26803,"lat":28.811728},{"location":"Weed, United States","lon":-122.38448,"lat":41.423958},{"location":"Petawawa, Canada","lon":-77.28371,"lat":45.900158},{"location":"Colchester, United States","lon":-73.15397,"lat":44.546062},{"location":"Terrebonne, Canada","lon":-73.65182,"lat":45.709026},{"location":"Roberts Creek, Canada","lon":-123.64213,"lat":49.42104},{"location":"Victoriaville, Canada","lon":-71.957565,"lat":46.056133},{"location":"Saratoga, United States","lon":-122.023186,"lat":37.264145},{"location":"Matane, Canada","lon":-67.52955,"lat":48.846375},{"location":"Ancaster, Canada","lon":-79.975555,"lat":43.22822},{"location":"Brentwood, United States","lon":-86.787926,"lat":36.034737},{"location":"Jackson Hole, United States","lon":-85.75208,"lat":41.41254},{"location":"Springfield, United States","lon":-93.29249,"lat":37.208836},{"location":"Wilsonville, United States","lon":-122.76584,"lat":45.302982},{"location":"North Ogden, United States","lon":-111.968704,"lat":41.30586},{"location":"Cambridge, Canada","lon":-80.31359,"lat":43.358913},{"location":"Jefferson City, United States","lon":-92.175026,"lat":38.578865},{"location":"Forest, United States","lon":-89.47449,"lat":32.364094},{"location":"Glen Ellyn, United States","lon":-88.06673,"lat":41.87751},{"location":"Traverse City, United States","lon":-85.62102,"lat":44.762913},{"location":"Bellevue, United States","lon":-122.20017,"lat":47.613846},{"location":"Leon, M\u00e9xico","lon":-101.681926,"lat":21.122002},{"location":"San Marcos, United States","lon":-97.94145,"lat":29.883057},{"location":"Portsmouth, United States","lon":-76.29792,"lat":36.83536},{"location":"Saint-Bruno-De-Montarville, Canada","lon":-73.342026,"lat":45.527405},{"location":"Ardmore, United States","lon":-97.12838,"lat":34.172573},{"location":"Midland, Canada","lon":-79.885475,"lat":44.75003},{"location":"Oswego, United States","lon":-88.35157,"lat":41.682957},{"location":"Cape Coral, United States","lon":-81.95011,"lat":26.562693},{"location":"Saguenay, Canada","lon":-71.070579,"lat":48.405388},{"location":"Heriot Bay, Canada","lon":-125.37615,"lat":50.16133},{"location":"Hermosa Beach, United States","lon":-118.39619,"lat":33.864443},{"location":"Langhorne, United States","lon":-74.92027,"lat":40.17615},{"location":"Arvada, United States","lon":-105.081474,"lat":39.799152},{"location":"Marlborough, United States","lon":-71.54865,"lat":42.345562},{"location":"Edwards, United States","lon":-106.59532,"lat":39.644882},{"location":"Conyers, United States","lon":-84.0178,"lat":33.668003},{"location":"Bluffton, United States","lon":-80.86067,"lat":32.237175},{"location":"Salem, United States","lon":-123.036674,"lat":44.94069},{"location":"Lake Elsinore, United States","lon":-117.327675,"lat":33.668026},{"location":"Ile-Bizard, Canada","lon":-73.87528,"lat":45.49386},{"location":"Charlottetown, Canada","lon":-63.126537,"lat":46.235413},{"location":"West Caldwell, United States","lon":-74.30168,"lat":40.841248},{"location":"Sainte-Th\u00e9r\u00e8se, Canada","lon":-73.841606,"lat":45.639496},{"location":"Minnetonka, United States","lon":-93.46392,"lat":44.93896},{"location":"Clark Fork, United States","lon":-116.17792,"lat":48.146557},{"location":"Charleston, United States","lon":-79.93863,"lat":32.789284},{"location":"Visalia, United States","lon":-119.29234,"lat":36.331074},{"location":"Edgewood, United States","lon":-77.00057,"lat":38.91628},{"location":"Leesport, United States","lon":-75.96658,"lat":40.446983},{"location":"Kenosha, United States","lon":-87.82217,"lat":42.58464},{"location":"McKinney, United States","lon":-96.61505,"lat":33.197292},{"location":"Reading, United States","lon":-75.9259,"lat":40.335285},{"location":"State College, United States","lon":-77.86034,"lat":40.793438},{"location":"San Juan Capistrano, United States","lon":-117.662506,"lat":33.49989},{"location":"Spring Creek, United States","lon":-104.766335,"lat":38.813847},{"location":"Sault Ste Marie, Canada","lon":-84.31937,"lat":46.52396},{"location":"Woodstock, Canada","lon":-80.75618,"lat":43.130177},{"location":"Del Norte, United States","lon":-106.57761,"lat":35.130924},{"location":"Katy, United States","lon":-95.82224,"lat":29.785751},{"location":"Carson City, United States","lon":-119.767,"lat":39.164577},{"location":"Holland, United States","lon":-86.1044,"lat":42.78941},{"location":"Pekin, United States","lon":-89.6479,"lat":40.570557},{"location":"Lunenburg, United States","lon":-71.72462,"lat":42.595085},{"location":"Trabuco Canyon, United States","lon":-117.590324,"lat":33.662228},{"location":"Blacksburg, United States","lon":-80.41535,"lat":37.23066},{"location":"Des Moines, United States","lon":-93.624275,"lat":41.584995},{"location":"Duxbury, United States","lon":-70.671844,"lat":42.04152},{"location":"Oshkosh, United States","lon":-88.53753,"lat":44.01689},{"location":"Moncton, Canada","lon":-64.80004,"lat":46.098465},{"location":"Salida, United States","lon":-121.08255,"lat":37.707783},{"location":"Lombard, United States","lon":-88.01973,"lat":41.8859},{"location":"Beaver, United States","lon":-80.30176,"lat":40.69649},{"location":"Tahoe City, United States","lon":-120.139626,"lat":39.17206},{"location":"Newbury Park, United States","lon":-118.9112,"lat":34.188168},{"location":"Pala, United States","lon":-117.07555,"lat":33.365253},{"location":"Pinedale, United States","lon":-119.79039,"lat":36.842674},{"location":"Warren, United States","lon":-83.00658,"lat":42.492535},{"location":"La Jolla, United States","lon":-117.270881,"lat":32.84423},{"location":"Chicoutimi, Canada","lon":-71.05521,"lat":48.428303},{"location":"Buckley, United States","lon":-122.027115,"lat":47.16299},{"location":"White Rock, Canada","lon":-122.801186,"lat":49.02931},{"location":"Regina, Canada","lon":-104.6108,"lat":50.448906},{"location":"Cliffside Park, United States","lon":-73.987274,"lat":40.826504},{"location":"Lakewood, United States","lon":-122.51783,"lat":47.163486},{"location":"Greensburg, United States","lon":-79.54426,"lat":40.30245},{"location":"New Smyrna, United States","lon":-81.161018,"lat":28.851239},{"location":"Grove, United States","lon":-94.76933,"lat":36.59346},{"location":"Ormond Beach, United States","lon":-81.05557,"lat":29.28573},{"location":"Crested Butte, United States","lon":-106.98749,"lat":38.86976},{"location":"St-honor\u00e9, Canada","lon":-69.531109,"lat":47.828899},{"location":"West Baldwin, United States","lon":-70.75676,"lat":43.83081},{"location":"Taylors, United States","lon":-82.29452,"lat":34.920715},{"location":"Calumet, United States","lon":-98.11866,"lat":35.60101},{"location":"Syracuse, United States","lon":-76.147484,"lat":43.047024},{"location":"Paradise, United States","lon":-115.148285,"lat":36.100998},{"location":"Windham, United States","lon":-70.40838,"lat":43.789417},{"location":"New Orleans, United States","lon":-90.0782,"lat":29.975962},{"location":"Tyler, United States","lon":-95.300644,"lat":32.35164},{"location":"Boone, United States","lon":-81.686066,"lat":36.219887},{"location":"Newport Beach, United States","lon":-117.930145,"lat":33.617992},{"location":"East Hanover, United States","lon":-74.35979,"lat":40.82645},{"location":"Kingsport, United States","lon":-82.55981,"lat":36.5474},{"location":"Puebla, M\u00e9xico","lon":-98.19906,"lat":19.043692},{"location":"Driggs, United States","lon":-111.11104,"lat":43.723083},{"location":"Kirby, United States","lon":-98.38131,"lat":29.470966},{"location":"Ft. Collins, United States","lon":-105.07712,"lat":40.587093},{"location":"Sarnia, Canada","lon":-82.40697,"lat":42.973392},{"location":"Roanoke, United States","lon":-79.94056,"lat":37.271828},{"location":"North Las Vegas, United States","lon":-115.12271,"lat":36.200447},{"location":"Algonquin, United States","lon":-88.292046,"lat":42.167244},{"location":"Milton, Canada","lon":-79.88279,"lat":43.51347},{"location":"Delaware, United States","lon":-75.505563,"lat":38.997878},{"location":"Bergen, United States","lon":-77.942444,"lat":43.08514},{"location":"Leesburg, United States","lon":-77.56453,"lat":39.11546},{"location":"Lubbock, United States","lon":-101.846803,"lat":33.585531},{"location":"Summerfield, United States","lon":-76.86554,"lat":38.897934},{"location":"Flowery Branch, United States","lon":-83.92472,"lat":34.184658},{"location":"Clackamas, United States","lon":-122.568855,"lat":45.407505},{"location":"Hazelton, Canada","lon":-127.67646,"lat":55.25566},{"location":"Ridge, United States","lon":-72.89624,"lat":40.89373},{"location":"Milwaukee, United States","lon":-87.90655,"lat":43.038773},{"location":"Gaithersburg, United States","lon":-77.19336,"lat":39.14219},{"location":"Waco, United States","lon":-97.147064,"lat":31.54915},{"location":"Chelsea, United States","lon":-73.992463,"lat":40.748469},{"location":"Medford, United States","lon":-71.10976,"lat":42.418224},{"location":"Manchester, United States","lon":-71.46309,"lat":42.990925},{"location":"Denman Island, Canada","lon":-124.816696,"lat":49.53469},{"location":"Rossland, Canada","lon":-117.80013,"lat":49.078125},{"location":"Douglassville, United States","lon":-75.72926,"lat":40.260723},{"location":"Fulton, United States","lon":-88.40904,"lat":34.27364},{"location":"Fort Saskatchewan, Canada","lon":-113.2135,"lat":53.712276},{"location":"Chesapeake, United States","lon":-76.250374,"lat":36.71464},{"location":"Laguna Niguel, United States","lon":-117.71665,"lat":33.527462},{"location":"Frisco, United States","lon":-96.82396,"lat":33.15044},{"location":"Apopka, United States","lon":-81.50946,"lat":28.673111},{"location":"Fountain Hills, United States","lon":-111.72146,"lat":33.605103},{"location":"Millville, United States","lon":-75.03703,"lat":39.395382},{"location":"Ymir, Canada","lon":-117.21493,"lat":49.283733},{"location":"Scarborough, Canada","lon":-79.25741,"lat":43.772446},{"location":"Rockport, United States","lon":-97.05451,"lat":28.020578},{"location":"Brant Lake, United States","lon":-73.74865,"lat":43.6775},{"location":"Didsbury, Canada","lon":-114.13746,"lat":51.660007},{"location":"Leduc, Canada","lon":-113.55032,"lat":53.26476},{"location":"Mammoth Lakes, United States","lon":-118.96659,"lat":37.64014},{"location":"Renton, United States","lon":-122.20545,"lat":47.479683},{"location":"Draper, United States","lon":-111.8642,"lat":40.52505},{"location":"Sammamish, United States","lon":-122.03547,"lat":47.616608},{"location":"Lisbon, United States","lon":-80.768,"lat":40.772175},{"location":"Melrose, United States","lon":-71.06465,"lat":42.45618},{"location":"Manassas, United States","lon":-77.47169,"lat":38.75184},{"location":"Orem, United States","lon":-111.69495,"lat":40.297234},{"location":"Boulder City, United States","lon":-114.83613,"lat":35.97949},{"location":"Arlington, United States","lon":-97.10711,"lat":32.735622},{"location":"Ken Caryl, United States","lon":-105.112564,"lat":39.57534},{"location":"Guadalajara, M\u00e9xico","lon":-103.359412,"lat":20.674793},{"location":"Petoskey, United States","lon":-84.95561,"lat":45.373997},{"location":"Lansdale, United States","lon":-75.285416,"lat":40.24256},{"location":"St. Petersburg, United States","lon":-82.63849,"lat":27.772078},{"location":"Marshfield, United States","lon":-70.71038,"lat":42.09137},{"location":"Land O Lakes, United States","lon":-82.45932,"lat":28.217161},{"location":"Rock Springs, United States","lon":-109.22057,"lat":41.585655},{"location":"Bethlehem, United States","lon":-75.382,"lat":40.621445},{"location":"Claremont, United States","lon":-117.719315,"lat":34.095642},{"location":"Sun Peaks, Canada","lon":-119.88127,"lat":50.88407},{"location":"Sarasota, United States","lon":-82.53854,"lat":27.336466},{"location":"Drummondville, Canada","lon":-72.488495,"lat":45.884956},{"location":"Brampton, Canada","lon":-79.75994,"lat":43.68589},{"location":"Paso Robles, United States","lon":-120.688934,"lat":35.62781},{"location":"Euless, United States","lon":-97.08264,"lat":32.83713},{"location":"Rockford, United States","lon":-89.09582,"lat":42.271782},{"location":"Grande Prairie, Canada","lon":-118.79468,"lat":55.17072},{"location":"Stouffville, Canada","lon":-79.24703,"lat":43.971313},{"location":"Kanata, Canada","lon":-75.89345,"lat":45.312756},{"location":"Ontario, United States","lon":-117.65081,"lat":34.06336},{"location":"Dillon, United States","lon":-79.37461,"lat":34.41846},{"location":"Stoney Creek, Canada","lon":-79.75657,"lat":43.216633},{"location":"Highland, United States","lon":-117.18141,"lat":34.112736},{"location":"John's Creek, United States","lon":-84.19007,"lat":34.01814},{"location":"Beaupr\u00e9, Canada","lon":-70.89693,"lat":47.042885},{"location":"Kennebunk, United States","lon":-70.54376,"lat":43.384476},{"location":"Pueblo, United States","lon":-104.61009,"lat":38.270638},{"location":"wimberley, United States","lon":-98.09621,"lat":29.996368},{"location":"Shawinigan, Canada","lon":-72.74892,"lat":46.540543},{"location":"West Kelowna, Canada","lon":-119.58252,"lat":49.859016},{"location":"Venice, United States","lon":-118.472275,"lat":33.9877},{"location":"Stanley, United States","lon":-81.09533,"lat":35.35936},{"location":"Weaverville, United States","lon":-82.5604,"lat":35.696705},{"location":"Duluth, United States","lon":-92.12557,"lat":46.77198},{"location":"Montague, United States","lon":-86.35496,"lat":43.41614},{"location":"Houghton, United States","lon":-88.56937,"lat":47.121128},{"location":"Chillicothe, United States","lon":-82.9821,"lat":39.333187},{"location":"Norco, United States","lon":-117.54985,"lat":33.931145},{"location":"Cartersville, United States","lon":-84.79673,"lat":34.164864},{"location":"Fishers, United States","lon":-86.01712,"lat":39.95684},{"location":"Ojai, United States","lon":-119.24346,"lat":34.44794},{"location":"Norwalk, United States","lon":-118.08618,"lat":33.910046},{"location":"Saint-Constant, Canada","lon":-73.56941,"lat":45.372887},{"location":"Kaysville, United States","lon":-111.9386,"lat":41.036465},{"location":"San Anselmo, United States","lon":-122.56191,"lat":37.97424},{"location":"Ely, United States","lon":-91.86692,"lat":47.90326},{"location":"Lake Tahoe, United States","lon":-94.032465,"lat":29.965875},{"location":"Old Bridge, United States","lon":-74.313207,"lat":40.396978},{"location":"Lewisburg, United States","lon":-86.78912,"lat":35.449112},{"location":"Apple Valley, United States","lon":-93.21763,"lat":44.731937},{"location":"Payson, United States","lon":-111.32293,"lat":34.240715},{"location":"Elko, Canada","lon":-115.11583,"lat":49.299625},{"location":"Granite Bay, United States","lon":-121.17061,"lat":38.74252},{"location":"La Crescenta, United States","lon":-118.23751,"lat":34.22263},{"location":"Stroudsburg, United States","lon":-75.1941,"lat":40.985374},{"location":"New Westminster, Canada","lon":-122.912575,"lat":49.2021},{"location":"St-Hyacinthe, Canada","lon":-72.94559,"lat":45.624065},{"location":"Cicero, United States","lon":-87.75392,"lat":41.845207},{"location":"Niagara Falls, Canada","lon":-79.063446,"lat":43.10664},{"location":"Savannah, United States","lon":-81.092575,"lat":32.08053},{"location":"Tampa, United States","lon":-82.4571,"lat":27.947973},{"location":"Dartmouth, United States","lon":-70.99765,"lat":41.640217},{"location":"Covina, United States","lon":-117.89015,"lat":34.087467},{"location":"Gilroy, United States","lon":-121.56869,"lat":37.0068},{"location":"El Cerrito, United States","lon":-122.31158,"lat":37.915752},{"location":"Lindsay, Canada","lon":-78.73702,"lat":44.355},{"location":"Queensbury, United States","lon":-73.65774,"lat":43.358685},{"location":"Cache Creek, Canada","lon":-121.32538,"lat":50.80883},{"location":"Arlington Heights, United States","lon":-87.98292,"lat":42.08431},{"location":"Montgomery Center, United States","lon":-72.608,"lat":44.877384},{"location":"Monkton, United States","lon":-76.61563,"lat":39.578953},{"location":"Corning, United States","lon":-77.0547,"lat":42.14274},{"location":"Barton, United States","lon":-117.23928,"lat":34.135853},{"location":"Stratford, United States","lon":-73.13258,"lat":41.184696},{"location":"Campbellsville, United States","lon":-85.34393,"lat":37.342373},{"location":"Welland, Canada","lon":-79.24912,"lat":42.99093},{"location":"Beaumont, Canada","lon":-113.41533,"lat":53.35456},{"location":"Sundre, Canada","lon":-114.64178,"lat":51.797043},{"location":"Blind Bay, Canada","lon":-119.40155,"lat":50.8874},{"location":"Croton-on-Hudson, United States","lon":-73.88272,"lat":41.208405},{"location":"Leland, United States","lon":-77.99822,"lat":34.233868},{"location":"Shinnston, United States","lon":-80.30059,"lat":39.395767},{"location":"Valleyfield, Canada","lon":-113.99913,"lat":51.012817},{"location":"South Kingstown, United States","lon":-71.53743,"lat":41.452877},{"location":"Desert Center, United States","lon":-115.40032,"lat":33.713177},{"location":"Linden, Canada","lon":-63.822964,"lat":45.877945},{"location":"Shorewood, United States","lon":-88.20648,"lat":41.52146},{"location":"Plainfield, United States","lon":-88.20512,"lat":41.608467},{"location":"East Aurora, United States","lon":-78.61158,"lat":42.767887},{"location":"Melbourne, United States","lon":-80.60589,"lat":28.079397},{"location":"West Newbury, United States","lon":-70.98848,"lat":42.80133},{"location":"Blue Mounds, United States","lon":-89.83206,"lat":43.016422},{"location":"Rowland Heights, United States","lon":-117.90534,"lat":33.97625},{"location":"Carpentersville, United States","lon":-88.25793,"lat":42.121017},{"location":"Nitro, United States","lon":-81.84266,"lat":38.421738},{"location":"Chester, United States","lon":-75.35896,"lat":39.846855},{"location":"Modesto, United States","lon":-121.00032,"lat":37.640514},{"location":"Mt. Holly, United States","lon":-74.788055,"lat":39.995396},{"location":"Chelsea, Canada","lon":-75.807434,"lat":45.50297},{"location":"Alameda, United States","lon":-122.2419,"lat":37.76534},{"location":"Kennesaw, United States","lon":-84.61527,"lat":34.02274},{"location":"Anniston, United States","lon":-85.82977,"lat":33.65916},{"location":"Bowdoin, United States","lon":-69.97049,"lat":44.03635},{"location":"Queensville, Canada","lon":-79.45058,"lat":44.138775},{"location":"Killington, United States","lon":-72.77906,"lat":43.674934},{"location":"Bedford, United States","lon":-97.14322,"lat":32.84424},{"location":"honeyville, United States","lon":-112.07957,"lat":41.636406},{"location":"New City, United States","lon":-87.66741,"lat":41.80858},{"location":"Winfield, Canada","lon":-114.42846,"lat":52.964928},{"location":"Tallahassee, United States","lon":-84.280624,"lat":30.438059},{"location":"Shrewsbury, United States","lon":-71.71367,"lat":42.29666},{"location":"Muskoka Lakes Township, Canada","lon":-79.310672,"lat":45.041317},{"location":"Waukesha, United States","lon":-88.231544,"lat":43.01159},{"location":"Liberty Lake, United States","lon":-117.10566,"lat":47.669914},{"location":"Waconia, United States","lon":-93.78758,"lat":44.85044},{"location":"Cary, United States","lon":-78.781166,"lat":35.78999},{"location":"Waterbury, United States","lon":-73.0429,"lat":41.55419},{"location":"Christina Lake, Canada","lon":-118.21347,"lat":49.039673},{"location":"Sedona, United States","lon":-111.813,"lat":34.861923},{"location":"Lee's Summit, United States","lon":-94.37623,"lat":38.912567},{"location":"Nampa, United States","lon":-116.56079,"lat":43.578045},{"location":"Muncie, United States","lon":-85.38766,"lat":40.1937},{"location":"New Canaan, United States","lon":-73.49246,"lat":41.147675},{"location":"Angel Fire, United States","lon":-105.285995,"lat":36.392075},{"location":"Queen Creek, United States","lon":-111.63581,"lat":33.24378},{"location":"Tempe, United States","lon":-111.939964,"lat":33.425507},{"location":"Amherst, United States","lon":-78.79902,"lat":42.97937},{"location":"West Valley City, United States","lon":-111.98771,"lat":40.696613},{"location":"Olympia, United States","lon":-122.90169,"lat":47.044907},{"location":"Westborough, United States","lon":-71.61336,"lat":42.269413},{"location":"Quincy, United States","lon":-71.00259,"lat":42.24961},{"location":"Roswell, United States","lon":-84.36156,"lat":34.023212},{"location":"Tewksbury, United States","lon":-71.232895,"lat":42.61176},{"location":"Cumming, United States","lon":-84.13918,"lat":34.20697},{"location":"Cobble Hill, Canada","lon":-123.6045,"lat":48.687817},{"location":"Port Perry, Canada","lon":-78.94236,"lat":44.105408},{"location":"Lockport, United States","lon":-78.69684,"lat":43.16887},{"location":"Rancho Mission Viejo, United States","lon":-117.61865,"lat":33.52643},{"location":"Calistoga, United States","lon":-122.579,"lat":38.57863},{"location":"Williamsburg, United States","lon":-76.701744,"lat":37.27117},{"location":"Antioch, United States","lon":-121.80603,"lat":38.00489},{"location":"Ladera Ranch, United States","lon":-117.638054,"lat":33.55203},{"location":"Prescott Valley, United States","lon":-112.315216,"lat":34.609673},{"location":"Whitehorse, Canada","lon":-135.05426,"lat":60.719334},{"location":"Agawam, United States","lon":-72.61563,"lat":42.067863},{"location":"Barre, United States","lon":-72.50135,"lat":44.197372},{"location":"Bryson City, United States","lon":-83.44619,"lat":35.42885},{"location":"Manhattan, United States","lon":-73.95709,"lat":40.789352},{"location":"Lake Orion, United States","lon":-83.239784,"lat":42.784664},{"location":"Ann Arbor, United States","lon":-83.748499,"lat":42.281424},{"location":"Coeur d'Alene, United States","lon":-116.78121,"lat":47.673473},{"location":"Snowshoe Village, United States","lon":-112.848669,"lat":37.703437},{"location":"Whistler, BC, Canada","lon":-122.95495,"lat":50.1151},{"location":"Issaquah, United States","lon":-122.03653,"lat":47.530132},{"location":"Black Hawk, United States","lon":-105.49364,"lat":39.802246},{"location":"Denville, United States","lon":-74.47732,"lat":40.891426},{"location":"Anacortes, United States","lon":-122.61099,"lat":48.51747},{"location":"Fredericton, Canada","lon":-66.64175,"lat":45.96112},{"location":"Magog, Canada","lon":-72.15346,"lat":45.266186},{"location":"Foothill Ranch, United States","lon":-117.66487,"lat":33.68041},{"location":"Greenland, United States","lon":-81.54448,"lat":30.171066},{"location":"Silverdale, United States","lon":-122.68591,"lat":47.65958},{"location":"Macomb Twp., United States","lon":-82.917945,"lat":42.672554},{"location":"Grafton, United States","lon":-82.05453,"lat":41.272606},{"location":"Bainbridge Island, United States","lon":-122.521,"lat":47.624866},{"location":"Morganton, United States","lon":-81.6881,"lat":35.745594},{"location":"Hill City, United States","lon":-85.310265,"lat":35.063557},{"location":"mooresville, United States","lon":-80.80655,"lat":35.586235},{"location":"Hillsboro, United States","lon":-122.98977,"lat":45.522667},{"location":"Monument, United States","lon":-104.872635,"lat":39.09152},{"location":"Sturgis, United States","lon":-85.4187,"lat":41.7993},{"location":"McKinleyville, United States","lon":-124.10098,"lat":40.942135},{"location":"LaSalle, Canada","lon":-73.63149,"lat":45.42902},{"location":"St. John's, Canada","lon":-52.7151,"lat":47.5617},{"location":"Saltspring Island, Canada","lon":-123.49975,"lat":48.85272},{"location":"Newtown, United States","lon":-74.93672,"lat":40.229305},{"location":"Harrisburg, United States","lon":-76.881874,"lat":40.259613},{"location":"Hampton, United States","lon":-76.3448,"lat":37.027798},{"location":"Hollywood Hills, United States","lon":-118.34587,"lat":34.122154},{"location":"Iowa City, United States","lon":-91.53313,"lat":41.659077},{"location":"Montague, Canada","lon":-62.655624,"lat":46.1684},{"location":"Allentown, United States","lon":-75.47178,"lat":40.602245},{"location":"West Milford, United States","lon":-74.370155,"lat":41.129616},{"location":"New Hartford, United States","lon":-75.287796,"lat":43.07334},{"location":"Battle Creek, United States","lon":-85.179955,"lat":42.316616},{"location":"Mills River, United States","lon":-82.56678,"lat":35.388065},{"location":"Poughkeepsie, United States","lon":-73.92885,"lat":41.704155},{"location":"Somersworth, United States","lon":-70.86405,"lat":43.263718},{"location":"North Charleston, United States","lon":-79.97345,"lat":32.85388},{"location":"Poulsbo, United States","lon":-122.64682,"lat":47.735054},{"location":"Bailey, United States","lon":-78.11655,"lat":35.78008},{"location":"Cultus Lake, Canada","lon":-121.97586,"lat":49.075123},{"location":"Hinsdale, United States","lon":-87.92717,"lat":41.801617},{"location":"Port Hardy, Canada","lon":-127.49225,"lat":50.722004},{"location":"Campton, United States","lon":-83.54741,"lat":37.7344},{"location":"Apex, United States","lon":-78.85033,"lat":35.73251},{"location":"Stillwater, United States","lon":-97.058624,"lat":36.115658},{"location":"Underhill, United States","lon":-72.8997,"lat":44.507557},{"location":"Lancaster, United States","lon":-76.30598,"lat":40.039543},{"location":"Hartford, United States","lon":-72.67589,"lat":41.763817},{"location":"Morrison, United States","lon":-105.19076,"lat":39.65367},{"location":"West Dover, United States","lon":-72.84925,"lat":42.936806},{"location":"Noblesville, United States","lon":-86.01472,"lat":40.045605},{"location":"Moorestown, United States","lon":-74.94677,"lat":39.963833},{"location":"raymore, United States","lon":-94.46835,"lat":38.810413},{"location":"Copperhill, United States","lon":-118.564156,"lat":34.436607},{"location":"Chemainus, Canada","lon":-123.71902,"lat":48.922302},{"location":"Bountiful, United States","lon":-111.88071,"lat":40.88936},{"location":"Williston, United States","lon":-103.62182,"lat":48.146545},{"location":"Prince Rupert, Canada","lon":-130.32582,"lat":54.313385},{"location":"Norton, United States","lon":-71.19069,"lat":41.96459},{"location":"Germantown, United States","lon":-77.26503,"lat":39.17985},{"location":"Black Diamond, United States","lon":-122.00341,"lat":47.30869},{"location":"Brockville, Canada","lon":-75.684364,"lat":44.58953},{"location":"York, United States","lon":-76.72771,"lat":39.962463},{"location":"Ajax, Canada","lon":-79.0207,"lat":43.84998},{"location":"North Conway, United States","lon":-71.12674,"lat":44.05156},{"location":"Cupertino, United States","lon":-122.02928,"lat":37.31932},{"location":"South Burlington, United States","lon":-73.17134,"lat":44.46695},{"location":"Sebastopol, United States","lon":-122.8229,"lat":38.402374},{"location":"Naples, United States","lon":-81.79484,"lat":26.141905},{"location":"Annapolis, United States","lon":-76.49211,"lat":38.979485},{"location":"Fullerton, United States","lon":-117.92431,"lat":33.87035},{"location":"Lone Tree, United States","lon":-104.90321,"lat":39.537403},{"location":"Cedar Grove, United States","lon":-93.75239,"lat":32.442},{"location":"Kent, United States","lon":-122.234825,"lat":47.3809},{"location":"Morganville, United States","lon":-74.24431,"lat":40.37676},{"location":"Aveiro, Portugal","lon":-8.653785,"lat":40.642216},{"location":"Seaside, United States","lon":-121.84174,"lat":36.611416},{"location":"Torbay, Canada","lon":-52.728165,"lat":47.656033},{"location":"Holbrook, United States","lon":-73.06855,"lat":40.79475},{"location":"Moulton, United States","lon":-87.29245,"lat":34.4816},{"location":"Soledad, United States","lon":-121.327194,"lat":36.425594},{"location":"Iron Mountain, United States","lon":-88.06551,"lat":45.817543},{"location":"Newcastle, United States","lon":-97.600174,"lat":35.256092},{"location":"Roseburg, United States","lon":-123.34277,"lat":43.2107},{"location":"Baker Creek, Canada","lon":-123.04165,"lat":52.90056},{"location":"Grants Pass, United States","lon":-123.32651,"lat":42.44004},{"location":"Langford, Canada","lon":-123.49836,"lat":48.448505},{"location":"Dawson Creek, Canada","lon":-120.22803,"lat":55.759293},{"location":"Mansonville, Canada","lon":-72.39204,"lat":45.050663},{"location":"Hamilton, United States","lon":-84.56034,"lat":39.39931},{"location":"Danbury, United States","lon":-73.451485,"lat":41.39371},{"location":"Eatonville, United States","lon":-122.26672,"lat":46.86734},{"location":"Wakefield, United States","lon":-71.07119,"lat":42.504494},{"location":"Armstrong, Canada","lon":-119.19377,"lat":50.44807},{"location":"Ellensburg, United States","lon":-120.54867,"lat":46.995476},{"location":"Cedar Park, United States","lon":-97.83332,"lat":30.519955},{"location":"Wheat Ridge, United States","lon":-105.077034,"lat":39.764896},{"location":"Lowell, United States","lon":-71.31101,"lat":42.645782},{"location":"sanford, United States","lon":-81.26803,"lat":28.811728},{"location":"Port Orchard, United States","lon":-122.63631,"lat":47.537956},{"location":"Mays Landing, United States","lon":-74.72755,"lat":39.452145},{"location":"Yorba Linda, United States","lon":-117.824326,"lat":33.889748},{"location":"Lenexa, United States","lon":-94.78348,"lat":38.970173},{"location":"Eversham Township, United States","lon":-74.895998,"lat":39.87584},{"location":"Newport, United States","lon":-71.31266,"lat":41.489628},{"location":"East Windsor, United States","lon":-74.493945,"lat":40.268006},{"location":"Repentigny, Canada","lon":-73.4527,"lat":45.73321},{"location":"Hackettstown, United States","lon":-74.82925,"lat":40.85381},{"location":"San Bernardino, United States","lon":-117.291885,"lat":34.10646},{"location":"Kailua, United States","lon":-157.744,"lat":21.3936},{"location":"Maria, Canada","lon":-65.9797,"lat":48.177967},{"location":"indian wells, United States","lon":-116.33882,"lat":33.721542},{"location":"Mukilteo, United States","lon":-122.30403,"lat":47.945454},{"location":"Jasper, United States","lon":-87.277596,"lat":33.83374},{"location":"Sainte-Ad\u00e8le, Canada","lon":-74.13623,"lat":45.95152},{"location":"Garden Grove, United States","lon":-117.94496,"lat":33.774055},{"location":"Loveland, United States","lon":-105.073204,"lat":40.39544},{"location":"Springdale, United States","lon":-94.130005,"lat":36.18506},{"location":"Weybridge, United States","lon":-84.32188,"lat":33.55181},{"location":"Harford County, United States","lon":-76.347558,"lat":39.534776},{"location":"Cranston, United States","lon":-71.43574,"lat":41.77899},{"location":"St. Paul, United States","lon":-93.09164,"lat":44.948227},{"location":"Royston, Canada","lon":-124.946365,"lat":49.645878},{"location":"West Hollywood, United States","lon":-118.36669,"lat":34.090767},{"location":"Girdwood, United States","lon":-149.13391,"lat":60.962345},{"location":"Fernandina Beach, United States","lon":-81.462105,"lat":30.671122},{"location":"Essex, United Kingdom","lon":0.473644,"lat":51.733253},{"location":"Swindon, United Kingdom","lon":-1.782255,"lat":51.559284},{"location":"Belfast, Northern Ireland","lon":-5.930276,"lat":54.596441},{"location":"weston super mare, United Kingdom","lon":-2.978688,"lat":51.3476},{"location":"Bolton, Canada","lon":-79.73824,"lat":43.879597},{"location":"Fallbrook, United States","lon":-117.25141,"lat":33.38206},{"location":"Jupiter, United States","lon":-80.09359,"lat":26.934261},{"location":"Bridgewater, United States","lon":-70.975426,"lat":41.990192},{"location":"North Bay, Canada","lon":-79.46433,"lat":46.309685},{"location":"Memphis, United States","lon":-90.04957,"lat":35.149845},{"location":"Yeadon, United States","lon":-75.25349,"lat":39.936535},{"location":"Richland, United States","lon":-119.27523,"lat":46.27482},{"location":"Woodside, United States","lon":-73.902115,"lat":40.74573},{"location":"St-J\u00e9r\u00f4me, Canada","lon":-74.00286,"lat":45.777546},{"location":"Greenwood Village, United States","lon":-104.95052,"lat":39.616898},{"location":"Kaneohe, United States","lon":-157.80197,"lat":21.418188},{"location":"Harrogate, United Kingdom","lon":-1.543094,"lat":53.993736},{"location":"Luba\u0144, Poland","lon":15.290032,"lat":51.120033},{"location":"Kent, United Kingdom","lon":0.522622,"lat":51.275127},{"location":"Stirling, Scotland","lon":-3.936001,"lat":56.118124},{"location":"London, United Kingdom","lon":-0.127647,"lat":51.5073},{"location":"Telford, United Kingdom","lon":-2.450959,"lat":52.677814},{"location":"Derbyshire, United Kingdom","lon":-1.427393,"lat":53.23586},{"location":"Paris, Canada","lon":-80.38451,"lat":43.194107},{"location":"Sioux Center, United States","lon":-96.17556,"lat":43.079742},{"location":"Myrtle Beach, United States","lon":-78.88932,"lat":33.694515},{"location":"Vermilion, Canada","lon":-110.855576,"lat":53.353962},{"location":"Centerville, United States","lon":-84.15893,"lat":39.628414},{"location":"Elkridge, United States","lon":-76.71366,"lat":39.2124},{"location":"Taos, United States","lon":-105.573296,"lat":36.407356},{"location":"Alpena, United States","lon":-83.43342,"lat":45.06229},{"location":"San Luis Potos\u00ed, M\u00e9xico","lon":-100.977424,"lat":22.151184},{"location":"Clemmons, United States","lon":-80.382385,"lat":36.029434},{"location":"Ellicott City, United States","lon":-76.79801,"lat":39.26751},{"location":"Veracruz, M\u00e9xico","lon":-96.137902,"lat":19.198362},{"location":"Kansas City, KS, United States","lon":-94.626816,"lat":39.11363},{"location":"Fort Lee, United States","lon":-77.33493,"lat":37.24742},{"location":"Altoona, United States","lon":-78.40276,"lat":40.515682},{"location":"Highland UT, United States","lon":-111.78518,"lat":40.431904},{"location":"Merrickville, Canada","lon":-75.83693,"lat":44.91606},{"location":"Pilot Point, United States","lon":-96.96063,"lat":33.39601},{"location":"Friday Harbor, United States","lon":-123.01611,"lat":48.534748},{"location":"Statesville, United States","lon":-80.888306,"lat":35.78463},{"location":"Ashburn, United States","lon":-77.48745,"lat":39.043556},{"location":"Plantation, United States","lon":-80.23345,"lat":26.127441},{"location":"Aylmer, Canada","lon":-80.98294,"lat":42.773006},{"location":"Greenwood, United States","lon":-86.1097,"lat":39.613667},{"location":"Shavertown, United States","lon":-75.93806,"lat":41.319965},{"location":"Nottingham, United States","lon":-76.51122,"lat":39.372143},{"location":"Fort Mill, United States","lon":-80.94312,"lat":35.00836},{"location":"Catonsville, United States","lon":-76.733925,"lat":39.271503},{"location":"Pickering, Canada","lon":-79.084694,"lat":43.83763},{"location":"Severn, Canada","lon":-79.374466,"lat":44.723965},{"location":"Bothell, United States","lon":-122.20534,"lat":47.75941},{"location":"Cold Spring, United States","lon":-84.43999,"lat":39.02184},{"location":"Beaconsfield, Canada","lon":-73.86618,"lat":45.42969},{"location":"Edmundston, Canada","lon":-68.32888,"lat":47.363716},{"location":"Camrose, Canada","lon":-112.82483,"lat":53.022217},{"location":"Rogers, United States","lon":-94.11741,"lat":36.333138},{"location":"Sierra Vista, United States","lon":-110.29633,"lat":31.554651},{"location":"Coralville, United States","lon":-91.580444,"lat":41.6768},{"location":"Laurel, United States","lon":-76.84867,"lat":39.097736},{"location":"Anderson, United States","lon":-82.65037,"lat":34.504013},{"location":"Elizabethtown, United States","lon":-85.85944,"lat":37.69386},{"location":"Happy Valley, United States","lon":-122.496864,"lat":45.42969},{"location":"Sausalito, United States","lon":-122.485,"lat":37.859},{"location":"Vashon Island, United States","lon":-122.46051,"lat":47.447388},{"location":"Victor, United States","lon":-77.409546,"lat":42.982517},{"location":"Blue Lake, United States","lon":-123.991646,"lat":40.8822},{"location":"Georgetown, United States","lon":-77.06281,"lat":38.905178},{"location":"East Setauket, United States","lon":-73.09256,"lat":40.921413},{"location":"Mill Bay, Canada","lon":-123.5585,"lat":48.6525},{"location":"Carrollton, United States","lon":-96.890335,"lat":32.95375},{"location":"Waterford, United States","lon":-83.402855,"lat":42.702232},{"location":"Lovettsville, United States","lon":-77.63658,"lat":39.272694},{"location":"Boalsburg, United States","lon":-77.792694,"lat":40.77565},{"location":"Libertyville, United States","lon":-87.954544,"lat":42.288803},{"location":"Cullman, United States","lon":-86.84313,"lat":34.173843},{"location":"Carrboro, United States","lon":-79.07228,"lat":35.91112},{"location":"Lexington Park, United States","lon":-76.45229,"lat":38.265846},{"location":"Lac Beauport, Canada","lon":-71.29767,"lat":46.9446},{"location":"Chaska, United States","lon":-93.60167,"lat":44.788746},{"location":"South Salem, United States","lon":-70.89607,"lat":42.509193},{"location":"Prairie Grove, United States","lon":-94.317314,"lat":35.97567},{"location":"Pomona, United States","lon":-117.75017,"lat":34.057842},{"location":"Meredith, United States","lon":-71.50114,"lat":43.656693},{"location":"Lincoln Park, United States","lon":-87.641525,"lat":41.92735},{"location":"Hornell, United States","lon":-77.66155,"lat":42.325867},{"location":"White Salmon, United States","lon":-121.48672,"lat":45.727768},{"location":"Chadds Ford, United States","lon":-75.59031,"lat":39.872154},{"location":"Honey Brook, United States","lon":-75.91341,"lat":40.09589},{"location":"Oak Creek, United States","lon":-87.9184,"lat":42.898987},{"location":"Watsonville, United States","lon":-121.756905,"lat":36.910255},{"location":"Media, United States","lon":-75.392784,"lat":39.919327},{"location":"Greer, United States","lon":-82.2272,"lat":34.938732},{"location":"Culver City, United States","lon":-118.39553,"lat":34.02266},{"location":"Essex, United States","lon":-76.47792,"lat":39.3075},{"location":"Lewes, United States","lon":-75.13806,"lat":38.775383},{"location":"Matthews, United States","lon":-80.72241,"lat":35.11596},{"location":"Bourbonnais, United States","lon":-87.88633,"lat":41.159218},{"location":"Westchester, United States","lon":-118.400403,"lat":33.959798},{"location":"Cottage Grove, United States","lon":-92.94392,"lat":44.82794},{"location":"East Lansing, United States","lon":-84.48379,"lat":42.736027},{"location":"Valley Cottage, United States","lon":-73.949295,"lat":41.11864},{"location":"Woody Creek, United States","lon":-106.886635,"lat":39.273136},{"location":"New Richmond, United States","lon":-92.53759,"lat":45.122673},{"location":"Port Mcneill, Canada","lon":-127.08632,"lat":50.590034},{"location":"Union City, United States","lon":-122.021562,"lat":37.587249},{"location":"Trenton, Canada","lon":-77.575386,"lat":44.101856},{"location":"Bow, United States","lon":-71.54857,"lat":43.13225},{"location":"Gallatin, United States","lon":-86.446396,"lat":36.388325},{"location":"Alma, Canada","lon":-71.652214,"lat":48.54995},{"location":"Wickenburg, United States","lon":-112.73016,"lat":33.96878},